OID_,FOD_ID,FPA_ID,SOURCE_SYS,SOURCE_S_1,NWCG_REPOR,NWCG_REP_1,NWCG_REP_2,SOURCE_REP,SOURCE_R_1,LOCAL_FIRE,LOCAL_INCI,FIRE_CODE,FIRE_NAME,ICS_209_IN,ICS_209_NA,MTBS_ID,MTBS_FIRE_,COMPLEX_NA,FIRE_YEAR,DISCOVERY_,DISCOVERY1,DISCOVER_1,STAT_CAUSE,STAT_CAU_1,CONT_DATE,CONT_DOY,CONT_TIME,FIRE_SIZE,FIRE_SIZE_,LATITUDE,LONGITUDE,OWNER_CODE,OWNER_DESC,STATE,COUNTY,FIPS_CODE,FIPS_NAME
0,201103018,W-623214,FED,DOI-WFMI,BIA,USORWSA,Warm Springs Agency,ORWSA,Warm Springs Agency,65, ,F6SB,UPPER DRY CREEK,OR-WSA-0065,4612 UDC,OR4478312125820110707,4612UDC, ,2011,7/7/2011 0:00:00,188,1312,5.000000000000000,Debris Burning,7/10/2011 0:00:00,191,1800,1313.000000000000000,F,44.783299999999997,-121.258300000000006,2.000000000000000,BIA,OR, , , 
1,201103045,W-627145,FED,DOI-WFMI,BIA,USORWSA,Warm Springs Agency,ORWSA,Warm Springs Agency,93, ,GB7Z,WEBSTER,OR-WSA-000093,webster, , , ,2011,8/24/2011 0:00:00,236,1721,1.000000000000000,Lightning,8/25/2011 0:00:00,237,1600,1500.000000000000000,F,44.825000000000003,-121.120800000000003,2.000000000000000,BIA,OR, , , 
2,201103163,W-625508,FED,DOI-WFMI,BIA,USWACOA,Colville Agency,WACOA,Colville Agency,85, ,F9M7,KWEI KWEI,WA-COA-0085,Kwei Kwei Creek, , , ,2011,8/6/2011 0:00:00,218,1757,2.000000000000000,Equipment Use,8/8/2011 0:00:00,220,1800,611.000000000000000,E,47.972059999999999,-118.837580000000003,2.000000000000000,BIA,WA, , , 
3,201103677,W-623523,FED,DOI-WFMI,BIA,USCASCA,Southern California Agency,CASCA,Southern California Agency,100, ,F7C6,EAGLE,CA-MVU-008019,EAGLE,CA3327711653720110721,EAGLE, ,2011,7/21/2011 0:00:00,202,2330,7.000000000000000,Arson,7/30/2011 0:00:00,211,0600,14100.000000000000000,G,33.283017000000001,-116.539044000000004,2.000000000000000,BIA,CA, , , 
4,201104190,W-625881,FED,DOI-WFMI,BIA,USMTNCA,Northern Cheyenne Agency,MTNCA,Northern Cheyenne Agency,36, ,GB0M,WATER HOLE,MT-NCA-000036,Water Hole,MT4568210688720110822,BLACKSPRINGSCOMPLEX,BLACK SPRINGS COMPLEX,2011,8/22/2011 0:00:00,234,1430,1.000000000000000,Lightning,11/28/2011 0:00:00,332,1200,18970.000000000000000,G,45.681899999999999,-106.887000000000000,2.000000000000000,BIA,MT, , , 
5,201104446,W-625035,FED,DOI-WFMI,BIA,USOKCOA,Concho Field Office,OKCOA,Concho Field Office,1121, ,F9NS,COLONY,OK-COA-001121,Colony,OK3533409868020110806,COLONY, ,2011,8/6/2011 0:00:00,218,1640,7.000000000000000,Arson,8/15/2011 0:00:00,227,1200,1480.000000000000000,F,35.346100000000000,-98.675799999999995,2.000000000000000,BIA,OK, , , 
6,201104015,W-629736,FED,DOI-WFMI,BIA,USMTCRA,Crow Agency,MTCRA,Crow Agency,41, ,F9RZ,HOSS,MT-CRA-000041,Hoss, , , ,2011,8/7/2011 0:00:00,219,1400,1.000000000000000,Lightning,10/5/2011 0:00:00,278,1555,802.000000000000000,E,45.218800000000002,-107.937299999999993,8.000000000000000,PRIVATE,MT, , , 
7,201104034,W-629806,FED,DOI-WFMI,BIA,USMTCRA,Crow Agency,MTCRA,Crow Agency,60, ,GB0V,BEAUVAIS CREEK,MT-CRA-000060,Beauvais Creek, , , ,2011,8/22/2011 0:00:00,234,1558,1.000000000000000,Lightning,8/24/2011 0:00:00,236,1800,789.600000000000023,E,45.507500000000000,-107.968199999999996,2.000000000000000,BIA,MT, , , 
8,201104292,W-619697,FED,DOI-WFMI,BIA,USKSHOA,Horton Agency,KSHOA,Horton Agency,9, ,F2HF,182, , ,KS3938409593320110413,182, ,2011,4/13/2011 0:00:00,103,0518,5.000000000000000,Debris Burning,4/13/2011 0:00:00,103,1700,1700.000000000000000,F,39.383600000000001,-95.933296999999996,2.000000000000000,BIA,KS, , , 
9,201104406,W-624087,FED,DOI-WFMI,BIA,USOKANA,Anadarko Agency,OKANA,Anadarko Agency,2122, ,F9HW,WACME, , ,OK3482609806320110805,WACME, ,2011,8/5/2011 0:00:00,217,1500,2.000000000000000,Equipment Use,8/9/2011 0:00:00,221,0700,1500.000000000000000,F,34.826099999999997,-98.062500000000000,8.000000000000000,PRIVATE,OK, , , 
10,201104338,W-618640,FED,DOI-WFMI,BIA,USOKANA,Anadarko Agency,OKANA,Anadarko Agency,1154, ,F2AH,WASHITA CREEK,OK-OKS-511001,Washita Creek, , , ,2011,4/7/2011 0:00:00,97,1600,7.000000000000000,Arson,4/15/2011 0:00:00,105,0800,600.000000000000000,E,34.836700000000000,-98.117800000000003,8.000000000000000,PRIVATE,OK, , , 
11,201104342,W-618861,FED,DOI-WFMI,BIA,USOKANA,Anadarko Agency,OKANA,Anadarko Agency,1158, ,F2LX,4 MILE RD.,OK-ANA-110058,4 Mile Road, , , ,2011,4/15/2011 0:00:00,105,1510,11.000000000000000,Powerline,4/21/2011 0:00:00,111,2100,800.000000000000000,E,34.782499999999999,-98.457200000000000,2.000000000000000,BIA,OK, , , 
12,201104343,W-618862,FED,DOI-WFMI,BIA,USOKANA,Anadarko Agency,OKANA,Anadarko Agency,1159, ,F2L2,CEMENT,OK-OKS-511002,Cement,OK3492909814020110415,CEMENT, ,2011,4/15/2011 0:00:00,105,1510,7.000000000000000,Arson,4/21/2011 0:00:00,111,2200,3000.000000000000000,F,34.920299999999997,-98.137200000000007,8.000000000000000,PRIVATE,OK, , , 
13,201104476,W-624886,FED,DOI-WFMI,TRIBE,USOKKIA,Kickapoo Field Office,OKKIA,Kickapoo Field Office,1134, ,F9F9,DEEP ROCK,OK-SHA-001135,Deep Rock, , , ,2011,8/4/2011 0:00:00,216,1030,7.000000000000000,Arson,8/6/2011 0:00:00,218,1200,685.000000000000000,E,36.014699999999998,-96.678600000000003,2.000000000000000,BIA,OK, , , 
14,201104129,W-629876,FED,DOI-WFMI,BIA,USMTFBA,Fort Belknap Agency,MTFBA,Fort Belknap Agency,62, ,GH0D,WILDHORSE,MT-FBA-000062,Wild Horse,MT4827710886020111001,WILDHORSE, ,2011,10/1/2011 0:00:00,274,1930,1.000000000000000,Lightning,10/2/2011 0:00:00,275,0330,1847.000000000000000,F,48.276699999999998,-108.860699999999994,9.000000000000000,TRIBAL,MT, , , 
15,201104189,W-625879,FED,DOI-WFMI,BIA,USMTNCA,Northern Cheyenne Agency,MTNCA,Northern Cheyenne Agency,35, ,GB0J,BOSS RIBS,MT-NCA-000035,Boss Ribs,MT4553410668420110822,BOSSRIBS,BLACK SPRINGS COMPLEX,2011,8/22/2011 0:00:00,234,1355,1.000000000000000,Lightning,11/28/2011 0:00:00,332,1200,4537.000000000000000,F,45.533819999999999,-106.685149999999993,2.000000000000000,BIA,MT, , , 
16,201104957,W-620947,FED,DOI-WFMI,BIA,USNMRNA,Ramah Navajo Agency,NMRNA,Ramah Navajo Agency,96, ,F1JC,LAMBSON,NM-N6S-096,Lambson, , , ,2011,3/16/2011 0:00:00,75,1630,9.000000000000000,Miscellaneous,3/18/2011 0:00:00,77,2200,700.000000000000000,E,34.998100000000001,-108.461100000000002,2.000000000000000,BIA,NM, , , 
17,201104579,W-629021,FED,DOI-WFMI,BIA,USCOSUA,Southern Ute Agency,COSUA,Southern Ute Agency,52, ,GB6M,SAMBRITO 2,CO-SUA-000236,SAMBRITO 2, , , ,2011,8/24/2011 0:00:00,236,1401,1.000000000000000,Lightning,8/29/2011 0:00:00,241,1200,535.000000000000000,E,37.096594000000003,-107.472593000000003,2.000000000000000,BIA,CO, , , 
18,201104876,W-621130,FED,DOI-WFMI,BIA,USNMMEA,Mescalero Agency,NMMEA,Mescalero Agency,61, ,F5SS,NUMBER 3,NM-MEA-000039,Number 3,NM3317110540120110628,NUMBER3, ,2011,6/28/2011 0:00:00,179,0958,1.000000000000000,Lightning,7/10/2011 0:00:00,191,1900,964.000000000000000,E,33.137200000000000,-105.396299999999997,2.000000000000000,BIA,NM, , , 
19,201106853,W-617578,FED,DOI-WFMI,BLM,USAZGID,Gila District Office,AZSAD,Safford-Tucson Zone, , ,F0ES,JELKS,AZ-SAD-011008,JELKS, , , ,2011,1/27/2011 0:00:00,27,1300,13.000000000000000,Missing/Undefined,2/7/2011 0:00:00,38,1200,716.000000000000000,E,31.601099999999999,-110.558300000000003,8.000000000000000,PRIVATE,AZ,Santa Cruz,023,Santa Cruz
20,201106872,W-619525,FED,DOI-WFMI,BLM,USAZGID,Gila District Office,AZSAD,Safford-Tucson Zone, , ,F2NM,PUERTO BLANCO, , , , , ,2011,5/9/2011 0:00:00,129,1808,13.000000000000000,Missing/Undefined,5/14/2011 0:00:00,134,1800,509.000000000000000,E,31.340000000000000,-109.077500000000001,1.000000000000000,BLM,AZ,Cochise,003,Cochise
21,201106873,W-619008,FED,DOI-WFMI,BLM,USAZGID,Gila District Office,AZSAD,Safford-Tucson Zone, , ,F2RC,EMPIRE,AZ-SAD-011033,EMPIRE,AZ3176511067520110420,EMPIRE, ,2011,4/20/2011 0:00:00,110,1615,13.000000000000000,Missing/Undefined,4/23/2011 0:00:00,113,1800,2009.000000000000000,F,31.762499999999999,-110.678899999999999,1.000000000000000,BLM,AZ,Pima,019,Pima
22,201106896,W-620023,FED,DOI-WFMI,BLM,USAZGID,Gila District Office,AZSAD,Safford-Tucson Zone, , ,F4G5,EMPIRE 2,AZ-SAD-011056,EMPIRE 2, , , ,2011,6/1/2011 0:00:00,152,1300,13.000000000000000,Missing/Undefined,6/3/2011 0:00:00,154,1700,611.000000000000000,E,31.750800000000002,-110.634699999999995,1.000000000000000,BLM,AZ,Pima,019,Pima
23,201108598,W-624439,FED,DOI-WFMI,BLM,USIDTFD,Twin  Falls District,IDSHD,Shoshone Field Office, , ,F9FT,DEAD HORSE CAVE,ID-TFD-000310,Dead Horse Cave,ID4299211488320110804,DEADHORSECAVE, ,2011,8/4/2011 0:00:00,216,2024,1.000000000000000,Lightning,8/9/2011 0:00:00,221,1600,6963.000000000000000,G,42.992330000000003,-114.883300000000006,1.000000000000000,BLM,ID, , , 
24,201108600,W-624441,FED,DOI-WFMI,BLM,USIDTFD,Twin  Falls District,IDSHD,Shoshone Field Office, , ,F9FW,DOUBLE A,ID-TFD-000314,Double A,ID4286811452720110804,DOUBLEA, ,2011,8/4/2011 0:00:00,216,2054,1.000000000000000,Lightning,8/8/2011 0:00:00,220,1800,13131.000000000000000,G,42.868299999999998,-114.527199999999993,1.000000000000000,BLM,ID,Lincoln,063,Lincoln
25,201108610,W-626670,FED,DOI-WFMI,BLM,USIDTFD,Twin  Falls District,IDSHD,Shoshone Field Office, , ,GD55,HWY 46 MM 103,ID-GOX-000462,Hwy 46 MM 103,ID4280911470420110901,HWY46MM103, ,2011,9/1/2011 0:00:00,244,1333,2.000000000000000,Equipment Use,9/2/2011 0:00:00,245,1900,4982.000000000000000,F,42.808100000000003,-114.704400000000007,7.000000000000000,STATE,ID,Gooding,047,Gooding
26,201108611,W-626669,FED,DOI-WFMI,BLM,USIDTFD,Twin  Falls District,IDSHD,Shoshone Field Office, , ,GD62,DEVILS CORRAL 3,ID-TFD-000463,Devils Corral 3, , , ,2011,9/1/2011 0:00:00,244,1723,9.000000000000000,Miscellaneous,9/2/2011 0:00:00,245,1900,535.000000000000000,E,42.601579999999998,-114.342749999999995,1.000000000000000,BLM,ID,Jerome,053,Jerome
27,201110350,W-632577,FED,DOI-WFMI,BLM,USORPRD,Prineville District,ORPRD,Prineville District, , ,GHU8,0848,OR-PRD-0848,MURDERERS CREEK,OR4431411944320111001,MURDERERSCREEK,MURDERERS CREEK COMPLEX,2011,10/1/2011 0:00:00,274,1353,1.000000000000000,Lightning,11/9/2011 0:00:00,313,1013,1089.000000000000000,F,44.313600000000001,-119.442800000000005,1.000000000000000,BLM,OR,Grant,023,Grant
28,201110397,W-625052,FED,DOI-WFMI,BLM,USORVAD,Vale District,ORVAD,Vale District, , ,F7KQ,WHITEHORSE,OR-VAD-00041,Whitehorse, , , ,2011,7/15/2011 0:00:00,196,2032,1.000000000000000,Lightning,7/16/2011 0:00:00,197,1300,554.000000000000000,E,42.504700000000000,-117.916399999999996,1.000000000000000,BLM,OR,Malheur,045,Malheur
29,201110411,W-626463,FED,DOI-WFMI,BLM,USORVAD,Vale District,ORVAD,Vale District, , ,F8VV,JACKIES BUTTE,OR-VAD-00057,Jackie's Butte, , , ,2011,7/30/2011 0:00:00,211,2123,1.000000000000000,Lightning,7/31/2011 0:00:00,212,1730,875.000000000000000,E,42.583894000000001,-117.640184000000005,1.000000000000000,BLM,OR,Malheur,045,Malheur
30,201110414,W-630274,FED,DOI-WFMI,BLM,USORVAD,Vale District,ORVAD,Vale District, , ,F8YN,SAND SPRINGS,OR-VAD-000061,Sand Springs,OR4296711776020110731,SANDSPRINGS, ,2011,7/31/2011 0:00:00,212,1901,1.000000000000000,Lightning,8/3/2011 0:00:00,215,1958,6187.000000000000000,G,42.966591000000001,-117.759789999999995,1.000000000000000,BLM,OR,Malheur,045,Malheur
31,201110424,W-630540,FED,DOI-WFMI,BLM,USORVAD,Vale District,ORVAD,Vale District, , ,F9NH,CLARKS BUTTE,OR-VAD-083,Clarks Butte,OR4306511751920110806,CLARKSBUTTE, ,2011,8/6/2011 0:00:00,218,2115,1.000000000000000,Lightning,8/12/2011 0:00:00,224,1800,13299.000000000000000,G,43.065294000000002,-117.513231000000005,1.000000000000000,BLM,OR,Malheur,045,Malheur
32,201110428,W-630532,FED,DOI-WFMI,BLM,USORVAD,Vale District,ORVAD,Vale District, , ,F9P0,PASCUAL 1,OR-VAD-000087,Pascual 1,OR4289811760220110806,PASCUAL1, ,2011,8/6/2011 0:00:00,218,2330,1.000000000000000,Lightning,8/9/2011 0:00:00,221,1700,1742.000000000000000,F,42.898294000000000,-117.601586999999995,1.000000000000000,BLM,OR,Malheur,045,Malheur
33,201110437,W-630275,FED,DOI-WFMI,BLM,USORVAD,Vale District,ORVAD,Vale District, , ,GB79,WEST LITTLE,OR-VAD-0116,West Little Fire,OR4235811722120110824,WESTLITTLEFIRE, ,2011,8/24/2011 0:00:00,236,1900,1.000000000000000,Lightning,8/29/2011 0:00:00,241,2000,4304.000000000000000,F,42.351875000000000,-117.220690000000005,1.000000000000000,BLM,OR,Malheur,045,Malheur
34,201110445,W-630469,FED,DOI-WFMI,BLM,USORVAD,Vale District,ORVAD,Vale District, , ,GCE4,VINES HILL,OR-VAD-124,Vines Hill,OR4391611746120110825,VINESHILL, ,2011,8/25/2011 0:00:00,237,1400,1.000000000000000,Lightning,8/27/2011 0:00:00,239,2000,1226.000000000000000,F,43.916297000000000,-117.460686999999993,1.000000000000000,BLM,OR,Malheur,045,Malheur
35,201113127,W-632056,FED,DOI-WFMI,NPS,USCAYNP,Yosemite National Park,CAYNP,Yosemite National Park,2558, ,F8XL,AVALANCHE,CA-YNP-2558,AVALANCHE,CA3766311970420110731,AVALANCHE, ,2011,7/31/2011 0:00:00,212,1142,1.000000000000000,Lightning,9/11/2011 0:00:00,254,1200,1069.000000000000000,F,37.663229999999999,-119.703950000000006,3.000000000000000,NPS,CA, , , 
36,201113178,W-632069,FED,DOI-WFMI,NPS,USCAYNP,Yosemite National Park,CAYNP,Yosemite National Park,3619, ,GF5Q,TAMARACK,CA-YNP-3619,TAMARACK,CA3776611974120110913,TAMARACK, ,2011,9/13/2011 0:00:00,256,1912,1.000000000000000,Lightning,10/4/2011 0:00:00,277,1200,1015.000000000000000,F,37.766359999999999,-119.740589999999997,3.000000000000000,NPS,CA, , , 
37,201120866,FWS-2011CAGRRF5PM,FED,FWS-FMIS,FWS,USCAGRR,Grasslands Wildlife Management Area,CAGRR,GRASSLANDS WILDLIFE MANAGEMENT AREA, , ,F5PM,REST, , , , , ,2011,6/26/2011 0:00:00,177,1200,9.000000000000000,Miscellaneous,6/26/2011 0:00:00,177,1500,575.000000000000000,E,36.859000000000002,-120.787999999999997,8.000000000000000,PRIVATE,CA, , , 
38,201142493,2011AFSNER-20110220-014,NONFED,ST-NASF,ST/C&L,USALALS,Alabama Forestry Commission,ALAFS,Alabama Forestry Commission, ,NER-20110220-014, ,"6301 US HWY 278W, AL",AL-ALS-20110220014,Knightens Crossroads,AL3396208567820110220,KNIGHTENSCROSSROADS, ,2011,2/20/2011 0:00:00,51,1658,7.000000000000000,Arson,2/21/2011 0:00:00,52,0044,919.000000000000000,E,34.180259800000002,-87.127475000000004,14.000000000000000,MISSING/NOT SPECIFIED,AL,Calhoun,015,Calhoun
39,201144993,2011OKOFS3-2011-30189-A,NONFED,ST-NASF,ST/C&L,USOKOKS,Oklahoma Division of Forestry,OKOFS,Oklahoma Forestry Services, ,3-2011-30189-A, ,30189,OK-NEU-11-30189,Rocky, , , ,2011,3/21/2011 0:00:00,80,2030,7.000000000000000,Arson,3/21/2011 0:00:00,80,2030,530.000000000000000,E,35.624816639999999,-94.751683360000001,8.000000000000000,PRIVATE,OK,Adair,001,Adair
40,201150276,2011FLFLS2011061413,NONFED,ST-NASF,ST/C&L,USFLFLS,Florida Forest Service,FLFLS,Florida Forest Service, ,2011061413, ,LONG TRAM (63), , ,FL3011508234720110812,LONGTRAM, ,2011,9/2/2011 0:00:00,245,2000,1.000000000000000,Lightning,12/1/2011 0:00:00,335,1220,638.000000000000000,E,30.115400000000001,-82.346699999999998,14.000000000000000,MISSING/NOT SPECIFIED,FL,Union,125,Union
41,201152432,2011FLFLS2011080372,NONFED,ST-NASF,ST/C&L,USFLFLS,Florida Forest Service,FLFLS,Florida Forest Service, ,2011080372, ,SWAMP(38),FL-FLS-2011-08-0372,SWAMP,FL2917908259420110426,SWAMP, ,2011,4/26/2011 0:00:00,116,1555,1.000000000000000,Lightning,6/15/2011 0:00:00,166,1615,1300.000000000000000,F,29.178500000000000,-82.594499999999996,7.000000000000000,STATE,FL,Levy,075,Levy
42,201152476,2011FLFLS2011160446,NONFED,ST-NASF,ST/C&L,USFLFLS,Florida Forest Service,FLFLS,Florida Forest Service, ,2011160446, ,ATLANTIC  (43),FL-FLS-2011-16-0446,ATLANTIC FIRE,FL2707908016820110518,ATLANTICFIRE, ,2011,5/18/2011 0:00:00,138,1145,1.000000000000000,Lightning,6/9/2011 0:00:00,160,1620,1047.000000000000000,F,27.079400000000000,-80.167900000000003,8.000000000000000,PRIVATE,FL,Martin,085,Martin
43,201153808,2011FLFLS2011160055,NONFED,ST-NASF,ST/C&L,USFLFLS,Florida Forest Service,FLFLS,Florida Forest Service, ,2011160055, ,(HI) TRACER (55),FL-FLS-2011-16-0055,Tracer,FL2752708125520110114,TRACER, ,2011,1/14/2011 0:00:00,14,0750,9.000000000000000,Miscellaneous,1/14/2011 0:00:00,14,1209,1089.200000000000045,F,27.527000000000001,-81.252600000000001,8.000000000000000,PRIVATE,FL,Highlands,055,Highlands
44,201108669,W-630467,FED,DOI-WFMI,BLM,USMTDFD,Dillon Field Office,MTDFD,Dillon Field Office, , ,EKS3,MELROSE,MT-CES-000412,MELROSE,MT4550311253520111001,MELROSE, ,2011,10/1/2011 0:00:00,274,1602,1.000000000000000,Lightning,10/2/2011 0:00:00,275,1600,2569.000000000000000,F,45.506950000000003,-112.542783000000000,1.000000000000000,BLM,MT,Madison,057,Madison
45,201108732,W-627955,FED,DOI-WFMI,BLM,USMTMCD,Miles City Field Office,MTMCD,Miles City Field Office, , ,GB03,MAVERICK,MT-MCD-039,MAVERICK,MT4526310580220110822,MAVERICK,DIAMOND COMPLEX,2011,8/22/2011 0:00:00,234,1339,1.000000000000000,Lightning,9/8/2011 0:00:00,251,2000,10714.799999999999272,G,45.263300000000001,-105.811700000000002,1.000000000000000,BLM,MT,Powder River,075,Powder River
46,201108734,W-626635,FED,DOI-WFMI,BLM,USMTMCD,Miles City Field Office,MTMCD,Miles City Field Office, , ,GBR4,MULLINS COULEE, , ,MT4583610601620110822,MULLINSCOULEE, ,2011,8/22/2011 0:00:00,234,0022,1.000000000000000,Lightning,8/22/2011 0:00:00,234,2041,2000.000000000000000,F,45.835799999999999,-106.016400000000004,8.000000000000000,PRIVATE,MT,Custer,017,Custer
47,201108735,W-629445,FED,DOI-WFMI,BLM,USMTMCD,Miles City Field Office,MTMCD,Miles City Field Office, , ,GBT9,MILL,MT-CNF-035,MILL,MT4577310607420110822,MILL,DIAMOND COMPLEX,2011,8/22/2011 0:00:00,234,1001,1.000000000000000,Lightning,9/8/2011 0:00:00,251,2000,5481.800000000000182,G,45.767800000000001,-106.068100000000001,5.000000000000000,USFS,MT,Powder River,075,Powder River
48,201110452,W-630269,FED,DOI-WFMI,BLM,USORVAD,Vale District,ORVAD,Vale District, , ,GF8P,WHITE MULE FIRE, , ,OR4264611760220110915,WHITEMULEFIRE, ,2011,9/15/2011 0:00:00,258,1836,1.000000000000000,Lightning,9/16/2011 0:00:00,259,1200,949.000000000000000,E,42.645800000000001,-117.601787000000002,1.000000000000000,BLM,OR,Malheur,045,Malheur
49,201110492,W-621041,FED,DOI-WFMI,BLM,USUTCCD,Cedar City Field Office,UTCCD,Cedar City Field Office, , ,F46Q,COTTONWOOD,UT-CCD-110189,Cottonwood,UT3707811375020110616,COTTONWOOD, ,2011,6/16/2011 0:00:00,167,2256,11.000000000000000,Powerline,6/19/2011 0:00:00,170,1800,1113.000000000000000,F,37.078299999999999,-113.750299999999996,1.000000000000000,BLM,UT,Washington,053,Washington
50,201110607,W-626521,FED,DOI-WFMI,BLM,USUTCCD,Cedar City Field Office,UTCCD,Cedar City Field Office, , ,F9H3,WRANGLER,UT-CCD-110513,Wrangler,UT3811111315820110805,WRANGLER, ,2011,8/5/2011 0:00:00,217,1600,1.000000000000000,Lightning,8/13/2011 0:00:00,225,1445,8455.000000000000000,G,38.110799999999998,-113.158100000000005,1.000000000000000,BLM,UT,Iron,021,Iron
51,201113331,W-629180,FED,DOI-WFMI,NPS,USORCLP,Crater Lake National Park,ORCLP,Crater Lake National Park,171, ,GDZ1,TRAIL FIRE,OR-CLP-110110,Red Cone, , ,RED CONE COMPLEX,2011,8/28/2011 0:00:00,240,1745,1.000000000000000,Lightning,11/3/2011 0:00:00,307,1025,645.000000000000000,E,42.980139999999999,-122.218469999999996,3.000000000000000,NPS,OR, , , 
52,201120915,FWS-2011GAOKRF25M,FED,FWS-FMIS,FWS,USGAOKR,Okefenokee National Wildlife Refuge,GAOKR,OKEFENOKEE NATIONAL WILDLIFE REFUGE, , ,F25M,HONEY PRAIRIE,GA-OKR-000001,Honey Prairie,GA3073008236920110430,HONEYPRAIRIE,HONEY PRAIRIE COMPLEX,2011,4/29/2011 0:00:00,119,1600,1.000000000000000,Lightning,12/22/2011 0:00:00,356,1500,309200.000000000000000,G,30.729720000000000,-82.368610000000004,4.000000000000000,FWS,GA, , , 
53,201120953,FWS-2011LASBRF56A,FED,FWS-FMIS,FWS,USLASBR,Sabine National Wildlife Refuge,LASBR,SABINE NATIONAL WILDLIFE REFUGE, , ,F56A,GRAND FEU,LA-SBR-011005,Grand Fue,LA2992909347420110703,GRANDFUE, ,2011,7/2/2011 0:00:00,183,1700,1.000000000000000,Lightning,7/14/2011 0:00:00,195,1400,6174.000000000000000,G,29.928611109999999,-93.474166670000002,4.000000000000000,FWS,LA, , , 
54,201120956,FWS-2011LASBRF3VU,FED,FWS-FMIS,FWS,USLASBR,Sabine National Wildlife Refuge,LASBR,SABINE NATIONAL WILDLIFE REFUGE, , ,F3VU,TISON,LA-SBR-011003,Tison,LA2983809357120110516,TISON, ,2011,5/16/2011 0:00:00,136,1445,9.000000000000000,Miscellaneous,5/27/2011 0:00:00,147,0900,5968.000000000000000,G,29.835555560000000,-93.571388889999994,4.000000000000000,FWS,LA, , , 
55,201120959,FWS-2011LASBRF6YR,FED,FWS-FMIS,FWS,USLASBR,Sabine National Wildlife Refuge,LASBR,SABINE NATIONAL WILDLIFE REFUGE, , ,F6YR,COCODRIE,LA-SBR-011006,Cocodrie, , , ,2011,7/9/2011 0:00:00,190,1400,1.000000000000000,Lightning,7/15/2011 0:00:00,196,1700,5820.000000000000000,G,29.834722220000000,-93.512500000000003,4.000000000000000,FWS,LA, , , 
56,201120962,FWS-2011NEVARF3L9,FED,FWS-FMIS,FWS,USNEVAR,Valentine National Wildlife Refuge,NEVAR,VALENTINE NATIONAL WILDLIFE REFUGE, , ,F3L9,MOTHER'S DAY,NE-NES-110289,Mothers Day,NE4188410083120110508,MOTHERSDAY, ,2011,5/8/2011 0:00:00,128,0845,1.000000000000000,Lightning,5/8/2011 0:00:00,128,2200,1000.000000000000000,F,41.866999999999997,-100.835999999999999,8.000000000000000,PRIVATE,NE, , , 
57,201120963,FWS-2011NEVARF2WH,FED,FWS-FMIS,FWS,USNEVAR,Valentine National Wildlife Refuge,NEVAR,VALENTINE NATIONAL WILDLIFE REFUGE, , ,F2WH,FINNEY LOOP,NE-NES-110240,THEDFORD II,NE4198910078120110422,THEDFORDII, ,2011,4/22/2011 0:00:00,112,1500,9.000000000000000,Miscellaneous,4/22/2011 0:00:00,112,2000,3895.000000000000000,F,41.992222220000002,-100.785277780000001,8.000000000000000,PRIVATE,NE, , , 
58,201120964,FWS-2011NEVARF19P,FED,FWS-FMIS,FWS,USNEVAR,Valentine National Wildlife Refuge,NEVAR,VALENTINE NATIONAL WILDLIFE REFUGE, , ,F19P,HALSEY DUMP, , ,NE4191010026720110405,HALSEYDUMP, ,2011,4/5/2011 0:00:00,95,0530,4.000000000000000,Campfire,4/5/2011 0:00:00,95,1130,2847.000000000000000,F,41.909948700000001,-100.267021299999996,8.000000000000000,PRIVATE,NE, , , 
59,201120965,FWS-2011NEVARF3LQ,FED,FWS-FMIS,FWS,USNEVAR,Valentine National Wildlife Refuge,NEVAR,VALENTINE NATIONAL WILDLIFE REFUGE, , ,F3LQ,GRADUATION,NE-NES-110287,Graduation,NE4198910022620110506,GRADUATION, ,2011,5/7/2011 0:00:00,127,0830,2.000000000000000,Equipment Use,5/8/2011 0:00:00,128,1500,1056.000000000000000,F,41.953611109999997,-100.218888890000002,8.000000000000000,PRIVATE,NE, , , 
60,201120984,FWS-2011NVDSRGC8L,FED,FWS-FMIS,FWS,USNVDSR,Desert National Wildlife Refuge,NVDSR,DESERT NATIONAL WILDLIFE RANGE, , ,GC8L,MORMON,NV-DSR-000146,MORMON, , , ,2011,8/28/2011 0:00:00,240,1245,1.000000000000000,Lightning,10/1/2011 0:00:00,274,1800,716.000000000000000,E,36.646111110000000,-115.131944439999998,4.000000000000000,FWS,NV, , , 
61,201145019,2011OKOFS3-2011-30215-A,NONFED,ST-NASF,ST/C&L,USOKOKS,Oklahoma Division of Forestry,OKOFS,Oklahoma Forestry Services, ,3-2011-30215-A, ,30215,OK-NEU-11-30215,Oak Ridge, , , ,2011,3/24/2011 0:00:00,83,2003,7.000000000000000,Arson,3/24/2011 0:00:00,83,2003,740.000000000000000,E,35.677466650000000,-94.523049990000004,15.000000000000000,UNDEFINED FEDERAL,OK,Adair,001,Adair
62,201145062,2011NENFS13531,NONFED,ST-NASF,ST/C&L,USNENES,Nebraska Department of Forestry,NENFS,Nebraska Forest Service, ,13531, , , , , , , ,2011,3/18/2011 0:00:00,77,1419,2.000000000000000,Equipment Use,3/18/2011 0:00:00,77,1816,3650.000000000000000,F,42.282897949999999,-101.073700000000002,14.000000000000000,MISSING/NOT SPECIFIED,NE, , , 
63,201147839,2011CACDFTCU007982,NONFED,ST-NASF,ST/C&L,USCATCU,Tuolumne-Calaveras Unit,CATCU,Tuolumne-Calaveras Unit, ,TCU007982, ,MILTON,CA-TCU-007982,MILTON,CA3794512084420110909,MILTON, ,2011,9/9/2011 0:00:00,252,1906,1.000000000000000,Lightning,,0, ,1122.000000000000000,F,37.944721999999999,-120.843889000000004,14.000000000000000,MISSING/NOT SPECIFIED,CA,STANISLAUS,099,Stanislaus
64,201107090,W-628319,FED,DOI-WFMI,BLM,USCACDD,California Desert District,CACDD,California Desert District, , ,F9L3,GILMAN,CA-RRU-071943,Gilman,CA3393811708020110806,GILMAN, ,2011,8/6/2011 0:00:00,218,1559,9.000000000000000,Miscellaneous,8/8/2011 0:00:00,220,0000,1026.599999999999909,F,33.937500000000000,-117.081699999999998,1.000000000000000,BLM,CA,Riverside,065,Riverside
65,201107130,W-628870,FED,DOI-WFMI,BLM,USCACDD,California Desert District,CACDD,California Desert District, , ,GEK7,CANYON,CA-KRN-027244,CANYON,CA3507211843420110904,CANYON, ,2011,9/4/2011 0:00:00,247,1000,2.000000000000000,Equipment Use,9/11/2011 0:00:00,254,1800,3128.000000000000000,F,35.080599999999997,-118.423299999999998,1.000000000000000,BLM,CA,Kern,029,Kern
66,201108773,W-623746,FED,DOI-WFMI,BLM,USNMADO,Albuquerque District Office,NMABD,Albuquerque Field Office, , ,F8QX,HEIFER,NM-RPD-629,Heifer, , , ,2011,7/28/2011 0:00:00,209,1619,1.000000000000000,Lightning,8/30/2011 0:00:00,242,1200,1276.000000000000000,F,35.531399999999998,-107.338897000000003,1.000000000000000,BLM,NM,McKinley,031,McKinley
67,201108788,W-617765,FED,DOI-WFMI,BLM,USNMCAD,Carlsbad Field Office,NMCAD,Carlsbad Field Office, , ,F0C9,IRON DRAW,NM-N5S-100,IRON DRAW, , , ,2011,1/24/2011 0:00:00,24,1712,13.000000000000000,Missing/Undefined,1/24/2011 0:00:00,24,2318,509.000000000000000,E,32.571100000000001,-103.677499999999995,7.000000000000000,STATE,NM,Lea,025,Lea
68,201108796,W-618120,FED,DOI-WFMI,BLM,USNMCAD,Carlsbad Field Office,NMCAD,Carlsbad Field Office, , ,F0X3,DELTA,NM-N5S-130,DELTA,NM3260710436220110227,DELTA, ,2011,2/27/2011 0:00:00,58,1011,4.000000000000000,Campfire,3/3/2011 0:00:00,62,1300,3200.000000000000000,F,32.609200000000001,-104.341700000000003,7.000000000000000,STATE,NM,Eddy,015,Eddy
69,201108809,W-618490,FED,DOI-WFMI,BLM,USNMCAD,Carlsbad Field Office,NMCAD,Carlsbad Field Office, , ,F1JB,EAGLE DRAW,NM-ROD-007,EAGLE DRAW,NM3283410474820110315,EAGLEDRAW, ,2011,3/15/2011 0:00:00,74,1627,2.000000000000000,Equipment Use,3/18/2011 0:00:00,77,1800,4017.000000000000000,F,32.834400000000002,-104.748599999999996,1.000000000000000,BLM,NM,Eddy,015,Eddy
70,201108832,W-618718,FED,DOI-WFMI,BLM,USNMCAD,Carlsbad Field Office,NMCAD,Carlsbad Field Office, , ,F2BR,CURRY,NM-N5S-207,CURRY, , , ,2011,4/9/2011 0:00:00,99,1614,13.000000000000000,Missing/Undefined,4/9/2011 0:00:00,99,2240,600.000000000000000,E,32.863300000000002,-103.751900000000006,8.000000000000000,PRIVATE,NM,Eddy,015,Eddy
71,201108849,W-619087,FED,DOI-WFMI,BLM,USNMCAD,Carlsbad Field Office,NMCAD,Carlsbad Field Office, , ,F2UG,LAST CHANCE,NM-LNF-000009,Last Chance,NM3223310475220110424,LASTCHANCE, ,2011,4/24/2011 0:00:00,114,0933,4.000000000000000,Campfire,5/18/2011 0:00:00,138,1800,53342.000000000000000,G,32.232500000000002,-104.752200000000002,5.000000000000000,USFS,NM,Eddy,015,Eddy
72,201108851,W-620262,FED,DOI-WFMI,BLM,USNMCAD,Carlsbad Field Office,NMCAD,Carlsbad Field Office, , ,F2ZP,FULFER,NM-N5S-263,Fulfer,NM3208110317520110426,FULFER, ,2011,4/26/2011 0:00:00,116,1423,9.000000000000000,Miscellaneous,4/27/2011 0:00:00,117,1200,2128.000000000000000,F,32.088900000000002,-103.199700000000007,1.000000000000000,BLM,NM,Eddy,015,Eddy
73,201113410,W-618117,FED,DOI-WFMI,NPS,USFLBCP,Big Cypress National Preserve,FLBCP,Big Cypress National Preserve,4, ,F0H0,YES FIRE,FL-BCP-00004,Yes,FL2594708128120110207,YES, ,2011,2/7/2011 0:00:00,38,1200,9.000000000000000,Miscellaneous,2/10/2011 0:00:00,41,1900,1354.000000000000000,F,25.916699999999999,-81.266700000000000,3.000000000000000,NPS,FL, , , 
74,201113425,W-619657,FED,DOI-WFMI,NPS,USFLBCP,Big Cypress National Preserve,FLBCP,Big Cypress National Preserve,20, ,F2ZF,JARHEAD,FL-BCP-110020,Jarhead, , , ,2011,4/26/2011 0:00:00,116,1730,1.000000000000000,Lightning,5/20/2011 0:00:00,140,1900,38131.000000000000000,G,25.972799999999999,-81.071399999999997,3.000000000000000,NPS,FL, , , 
75,201113439,W-625597,FED,DOI-WFMI,NPS,USFLBCP,Big Cypress National Preserve,FLBCP,Big Cypress National Preserve,34, ,F40F,OIL PAD COMPLEX,FL-BCP-000037,Oil Pad Complex,FL2620308116120110613,OILPADCOMPLEX,OIL PAD COMPLEX,2011,6/13/2011 0:00:00,164,1200,1.000000000000000,Lightning,6/20/2011 0:00:00,171,1900,3149.000000000000000,F,26.001700000000000,-81.236099999999993,3.000000000000000,NPS,FL, , , 
76,201113440,W-625599,FED,DOI-WFMI,NPS,USFLBCP,Big Cypress National Preserve,FLBCP,Big Cypress National Preserve,35, ,F4YT,BUNSCHU SOUTH,FL-BCP-000035,BUNSHUE SOUTH,FL2620308116120110613,OILPADCOMPLEX,OIL PAD COMPLEX,2011,6/13/2011 0:00:00,164,1200,1.000000000000000,Lightning,6/25/2011 0:00:00,176,1900,1408.000000000000000,F,26.202800000000000,-81.160799999999995,3.000000000000000,NPS,FL, , , 
77,201113442,W-625601,FED,DOI-WFMI,NPS,USFLBCP,Big Cypress National Preserve,FLBCP,Big Cypress National Preserve,37, ,F4YS,NORTH,FL-BCP-000037,Oil Pad Complex,FL2624308122420110613,MONKEYFARM,OIL PAD COMPLEX,2011,6/13/2011 0:00:00,164,1200,1.000000000000000,Lightning,6/25/2011 0:00:00,176,1900,5878.000000000000000,G,26.242500000000000,-81.223600000000005,3.000000000000000,NPS,FL, , , 
78,201113496,W-628829,FED,DOI-WFMI,NPS,USFLEVP,Everglades National Park,FLEVP,Everglades National Park,1159, ,F4PT,DOF PRARIE FIRE,FL-FLS-2011-18-0234,PRAIRIE FIRE,FL2580408046920110605,PRAIRIEFIRE, ,2011,6/6/2011 0:00:00,157,1325,1.000000000000000,Lightning,6/15/2011 0:00:00,166,1325,68295.000000000000000,G,25.801900000000000,-80.469399999999993,7.000000000000000,STATE,FL, , , 
79,201113511,W-625789,FED,DOI-WFMI,NPS,USFLEVP,Everglades National Park,FLEVP,Everglades National Park,1175, ,F81B,AFTERNOON FIRE,FL-EVP-110075,Afternoon,FL2573308053320110801,AFTERNOON, ,2011,8/1/2011 0:00:00,213,1531,1.000000000000000,Lightning,8/8/2011 0:00:00,220,1200,10423.000000000000000,G,25.733300000000000,-80.533299999999997,3.000000000000000,NPS,FL, , , 
80,201113519,W-627440,FED,DOI-WFMI,NPS,USFLEVP,Everglades National Park,FLEVP,Everglades National Park,1183, ,GA5A,CUT OFF,FL-EVP-110083,Cutoff, , , ,2011,3/17/2011 0:00:00,76,1800,1.000000000000000,Lightning,8/18/2011 0:00:00,230,1800,925.000000000000000,E,25.527000000000001,-81.143000000000001,3.000000000000000,NPS,FL, , , 
81,201113522,W-627439,FED,DOI-WFMI,NPS,USFLEVP,Everglades National Park,FLEVP,Everglades National Park,1186, ,GB29,SHANTY FIRE,FL-EVP-110086,Shanty, , , ,2011,8/23/2011 0:00:00,235,1500,1.000000000000000,Lightning,8/25/2011 0:00:00,237,1200,7491.000000000000000,G,25.709399999999999,-80.628600000000006,3.000000000000000,NPS,FL, , , 
82,201146613,2011FLFLS2011160438,NONFED,ST-NASF,ST/C&L,USFLFLS,Florida Forest Service,FLFLS,Florida Forest Service, ,2011160438, ,SATURDAY (28), , ,FL2706008126820110514,SATURDAY, ,2011,5/14/2011 0:00:00,134,1525,1.000000000000000,Lightning,5/20/2011 0:00:00,140,2153,541.500000000000000,E,27.059699999999999,-81.268400000000000,8.000000000000000,PRIVATE,FL,Highlands,055,Highlands
83,201150447,2011MD-DNR4081,NONFED,ST-NASF,ST/C&L,USMDMDS,Maryland Department of Natural Resources Forest Service,MDDNR,Maryland Department of Natural Resources Forest Service, ,4081, ,THOROFARE,MD-MDS-4081,THOROFARE,MD3840507599120110214,THOROFARE, ,2011,2/14/2011 0:00:00,45,1000,7.000000000000000,Arson,2/14/2011 0:00:00,45,1200,590.100000000000023,E,38.404811109999997,-75.991222219999997,7.000000000000000,STATE,MD,Dorchester,019,Dorchester
84,201150455,2011MD-DNR4089,NONFED,ST-NASF,ST/C&L,USMDMDS,Maryland Department of Natural Resources Forest Service,MDDNR,Maryland Department of Natural Resources Forest Service, ,4089, ,BLACKWATER COMPLEX,MD-MDS-4089,BLACKWATER COMPLEX,MD3836807604120110211,BLACKWATERCOMPLEX,BLACKWATER COMPLEX,2011,2/11/2011 0:00:00,42,1500,7.000000000000000,Arson,2/11/2011 0:00:00,42,1700,1367.000000000000000,F,38.368344440000001,-76.040980559999994,7.000000000000000,STATE,MD,Dorchester,019,Dorchester
85,201150456,2011MD-DNR4090,NONFED,ST-NASF,ST/C&L,USMDMDS,Maryland Department of Natural Resources Forest Service,MDDNR,Maryland Department of Natural Resources Forest Service, ,4090, ,GUINEA ISLAND COMPLEX,MD-MDS-4090,GUINEA ISLAND COMPLEX,MD3838507598720110216,GUINEAISLANDCOMPLEX,GUINEA ISLAND COMPLEX,2011,2/16/2011 0:00:00,47,1000,7.000000000000000,Arson,2/16/2011 0:00:00,47,2000,649.000000000000000,E,38.385138890000000,-75.986902779999994,7.000000000000000,STATE,MD,Dorchester,019,Dorchester
86,201150464,2011MD-DNR4098,NONFED,ST-NASF,ST/C&L,USMDMDS,Maryland Department of Natural Resources Forest Service,MDDNR,Maryland Department of Natural Resources Forest Service, ,4098, ,LITTLE PATUXENT RIVER,MD-MDS-4098,LITTLE PATUXENT,MD3900907671420110219,LITTLEPATUXENT, ,2011,2/19/2011 0:00:00,50,1442,4.000000000000000,Campfire,2/19/2011 0:00:00,50,2330,500.000000000000000,E,39.026638890000001,-76.726158330000004,8.000000000000000,PRIVATE,MD,Anne Arundel,003,Anne Arundel
87,201180482,2011MNDNR2011121066,NONFED,ST-NASF,ST/C&L,USMNMNS,Minnesota Department of Natural Resources,MNDNR,Minnesota Department of Natural Resources, ,2011121066, ,JUNEBERRY 3,MN-MNS-1210660,Juneberry 3,MN4883009632220111005,JUNEBERRY3,JUNEBERRY 3 COMPLEX,2011,10/5/2011 0:00:00,278,1330,5.000000000000000,Debris Burning,,0, ,28810.000000000000000,G,48.821599999999997,-96.330010000000001,14.000000000000000,MISSING/NOT SPECIFIED,MN,Roseau,135,Roseau
88,201152618,2011FLFLS2011180254,NONFED,ST-NASF,ST/C&L,USFLFLS,Florida Forest Service,FLFLS,Florida Forest Service, ,2011180254, ,TRAIL 2 (50), , , , , ,2011,6/15/2011 0:00:00,166,1435,1.000000000000000,Lightning,6/23/2011 0:00:00,174,1218,937.000000000000000,E,26.947299999999998,-80.423500000000004,7.000000000000000,STATE,FL,Palm Beach,099,Palm Beach
89,201152722,2011FLFLS2011150387,NONFED,ST-NASF,ST/C&L,USFLFLS,Florida Forest Service,FLFLS,Florida Forest Service, ,2011150387, ,NORTH POWERLINE WETLAND (58),FL-FLS-2011-15-0387,NORTH POWERLINE, , , ,2011,6/5/2011 0:00:00,156,1600,9.000000000000000,Miscellaneous,6/11/2011 0:00:00,162,1735,661.600000000000023,E,27.157499999999999,-82.211699999999993,12.000000000000000,MUNICIPAL/LOCAL,FL,Sarasota,115,Sarasota
90,201153945,2011FLFLS2011140104,NONFED,ST-NASF,ST/C&L,USFLFLS,Florida Forest Service,FLFLS,Florida Forest Service, ,2011140104, ,53 IMC PARK COMMAND,FL-FLS-2011-14-0104,IMC PARK COMMAND, , , ,2011,2/4/2011 0:00:00,35,1545,11.000000000000000,Powerline,2/4/2011 0:00:00,35,1911,500.000000000000000,E,27.843900000000001,-81.811400000000006,12.000000000000000,MUNICIPAL/LOCAL,FL,Polk,105,Polk
91,201107147,W-629622,FED,DOI-WFMI,BLM,USCACDD,California Desert District,CACDD,California Desert District, , ,GHU9,GREAT,CA-MVU-011019,GREAT,CA3309811647820111001,GREAT, ,2011,10/1/2011 0:00:00,274,1254,1.000000000000000,Lightning,10/8/2011 0:00:00,281,2000,2134.199999999999818,F,35.097499999999997,-116.478600000000000,1.000000000000000,BLM,CA,San Diego,073,San Diego
92,201107178,W-618353,FED,DOI-WFMI,BLM,USCACND,Central California District,CACND,Central California, , ,F1M2,CENTER,CA-BDU-002915,CENTER, , , ,2011,3/18/2011 0:00:00,77,1521,13.000000000000000,Missing/Undefined,3/22/2011 0:00:00,81,1500,850.000000000000000,E,37.150002999999998,-118.316396999999995,8.000000000000000,PRIVATE,CA,Inyo,027,Inyo
93,201107234,W-620455,FED,DOI-WFMI,BLM,USCACND,Central California District,CACND,Central California, , ,F4XD,IKEA, , , , , ,2011,6/12/2011 0:00:00,163,1657,13.000000000000000,Missing/Undefined,6/12/2011 0:00:00,163,2130,629.000000000000000,E,35.024200000000000,-119.021900000000002,8.000000000000000,PRIVATE,CA, , , 
94,201107240,W-620894,FED,DOI-WFMI,BLM,USCACND,Central California District,CACND,Central California, , ,F5BL,ANTELOPE,CA-KRN-017988,ANTELOPE,CA3550411987920110619,ANTELOPE, ,2011,6/19/2011 0:00:00,170,1013,9.000000000000000,Miscellaneous,6/21/2011 0:00:00,172,1800,5196.000000000000000,G,35.484200000000001,-119.863299999999995,8.000000000000000,PRIVATE,CA, , , 
95,201107263,W-622155,FED,DOI-WFMI,BLM,USCACND,Central California District,CACND,Central California, , ,F5RS,STAGE,CA-TUU-000134,Stage,CA3581211884420110627,STAGE, ,2011,6/27/2011 0:00:00,178,1200,13.000000000000000,Missing/Undefined,6/29/2011 0:00:00,180,1800,1200.000000000000000,F,35.811900000000001,-118.844200000000001,8.000000000000000,PRIVATE,CA, , , 
96,201108864,W-621829,FED,DOI-WFMI,BLM,USNMCAD,Carlsbad Field Office,NMCAD,Carlsbad Field Office, , ,F3M1,RAGING BULL,NM-N5S-289,RAGING BULL,NM3294610352520110509,RAGINGBULL, ,2011,5/9/2011 0:00:00,129,1100,13.000000000000000,Missing/Undefined,5/11/2011 0:00:00,131,1700,7516.000000000000000,G,32.858600000000003,-103.750000000000000,7.000000000000000,STATE,NM,Eddy,015,Eddy
97,201108865,W-626187,FED,DOI-WFMI,BLM,USNMCAD,Carlsbad Field Office,NMCAD,Carlsbad Field Office, , ,F3M6,MAYHILL,NM-N5S-00290,MAYHILL,NM3287010548020110509,MAYHILL, ,2011,5/9/2011 0:00:00,129,1341,11.000000000000000,Powerline,5/29/2011 0:00:00,149,1630,31861.000000000000000,G,32.895000000000003,-105.489199999999997,5.000000000000000,USFS,NM, , , 
98,201108866,W-621455,FED,DOI-WFMI,BLM,USNMCAD,Carlsbad Field Office,NMCAD,Carlsbad Field Office, , ,F3P4,ROSS, , , , , ,2011,5/10/2011 0:00:00,130,2251,1.000000000000000,Lightning,5/16/2011 0:00:00,136,1450,567.000000000000000,E,32.051400000000001,-103.751700000000000,1.000000000000000,BLM,NM,Lea,025,Lea
99,201108878,W-621514,FED,DOI-WFMI,BLM,USNMCAD,Carlsbad Field Office,NMCAD,Carlsbad Field Office, , ,F4HR,WELL,NM-N5S-00358,Wells,NM3258910518820110602,WELLS, ,2011,6/2/2011 0:00:00,153,0904,1.000000000000000,Lightning,6/20/2011 0:00:00,171,1330,4254.000000000000000,F,32.645600000000002,-105.326099999999997,7.000000000000000,STATE,NM,Otero,035,Otero
100,201108886,W-621515,FED,DOI-WFMI,BLM,USNMCAD,Carlsbad Field Office,NMCAD,Carlsbad Field Office, , ,F4LW,SERPENTINE,NM-N5S-000374,Serpentine,NM3219910458420110605,SERPENTINE, ,2011,6/5/2011 0:00:00,156,0737,1.000000000000000,Lightning,6/12/2011 0:00:00,163,1800,8157.000000000000000,G,32.199399999999997,-104.583600000000004,7.000000000000000,STATE,NM,Eddy,015,Eddy
101,201108892,W-621539,FED,DOI-WFMI,BLM,USNMCAD,Carlsbad Field Office,NMCAD,Carlsbad Field Office, , ,F4T1,WIR1,NM-N5S-385,WIR1,NM3271410338420110609,WIR1, ,2011,6/9/2011 0:00:00,160,1440,13.000000000000000,Missing/Undefined,6/9/2011 0:00:00,160,2100,8920.000000000000000,G,32.713600000000000,-103.383899999999997,7.000000000000000,STATE,NM,Eddy,015,Eddy
102,201108949,W-626231,FED,DOI-WFMI,BLM,USNMCAD,Carlsbad Field Office,NMCAD,Carlsbad Field Office, , ,F9RF,TOMS CANYON,NM-CAD-000100,Tom's Canyon,NM3234910450720110807,TOM'SCANYON, ,2011,8/7/2011 0:00:00,219,1819,1.000000000000000,Lightning,8/26/2011 0:00:00,238,0900,7528.000000000000000,G,32.349400000000003,-104.506699999999995,1.000000000000000,BLM,NM,Eddy,015,Eddy
103,201108951,W-626241,FED,DOI-WFMI,BLM,USNMCAD,Carlsbad Field Office,NMCAD,Carlsbad Field Office, , ,F9SV,CUEVO CANYON,NM-N5S-000123,Cuevo Canyon, , , ,2011,8/7/2011 0:00:00,219,1512,1.000000000000000,Lightning,8/10/2011 0:00:00,222,1130,550.000000000000000,E,32.806899999999999,-105.283100000000005,7.000000000000000,STATE,NM,Eddy,015,Eddy
104,201141132,2011SCSCS11WF0925,NONFED,ST-NASF,ST/C&L,USSCSCS,South Carolina Forestry Commission,SCSCS,South Carolina Forestry Commission, ,11WF0925, ,WINDY,SC-SCS-W032311-48,Windy,SC3317807943320110323,WINDY, ,2011,3/23/2011 0:00:00,82,1446,7.000000000000000,Arson,3/24/2011 0:00:00,83,1858,2466.000000000000000,F,33.166668000000001,-79.433334000000002,8.000000000000000,PRIVATE,SC,Charleston County,019,Charleston
105,201141169,2011SCSCS11WF0924,NONFED,ST-NASF,ST/C&L,USSCSCS,South Carolina Forestry Commission,SCSCS,South Carolina Forestry Commission, ,11WF0924, ,SANDRIDGE,SC-SCS-W032411-6,Sandridge Road,SC3309408045620110324,SANDRIDGEROAD, ,2011,3/24/2011 0:00:00,83,1145,5.000000000000000,Debris Burning,3/25/2011 0:00:00,84,1757,1247.000000000000000,F,33.094009000000000,-80.455726999999996,8.000000000000000,PRIVATE,SC,Dorchester County,035,Dorchester
106,201145207,2011OKOFS3-2011-40302-A,NONFED,ST-NASF,ST/C&L,USOKOKS,Oklahoma Division of Forestry,OKOFS,Oklahoma Forestry Services, ,3-2011-40302-A, ,40302,OK-NEU-11-40302,P bar H Ranch, , , ,2011,4/5/2011 0:00:00,95,2000,5.000000000000000,Debris Burning,4/5/2011 0:00:00,95,2000,900.000000000000000,E,35.841500029999999,-95.819499969999995,8.000000000000000,PRIVATE,OK,Okmulgee,111,Okmulgee
107,201145248,2011NENFS14174,NONFED,ST-NASF,ST/C&L,USNENES,Nebraska Department of Forestry,NENFS,Nebraska Forest Service, ,14174, , , , , , , ,2011,10/5/2011 0:00:00,278,1459,2.000000000000000,Equipment Use,10/5/2011 0:00:00,278,2215,1200.000000000000000,F,42.731700900000000,-97.497940060000005,14.000000000000000,MISSING/NOT SPECIFIED,NE, , , 
108,201148050,2011CACDFBEU001593,NONFED,ST-NASF,ST/C&L,USCABEU,San Benito-Monterey Unit,CABEU,CDF - San Benito-Monterey Unit, ,BEU001593, ,METZ,CA-BEU-001593,METZ, , , ,2011,5/12/2011 0:00:00,132,1815,9.000000000000000,Miscellaneous,,0, ,832.000000000000000,E,36.415832999999999,-121.278056000000007,14.000000000000000,MISSING/NOT SPECIFIED,CA,MONTEREY,053,Monterey
109,201152886,2011FLFLS2011100578,NONFED,ST-NASF,ST/C&L,USFLFLS,Florida Forest Service,FLFLS,Florida Forest Service, ,2011100578, ,MAYTOWN ROAD (64),FL-FLS-2011-10-0578,MAYTOWN ROAD,FL2884308102420110613,MAYTOWNROAD, ,2011,6/13/2011 0:00:00,164,1614,1.000000000000000,Lightning,6/27/2011 0:00:00,178,0912,2397.000000000000000,F,28.842600000000001,-81.023700000000005,8.000000000000000,PRIVATE,FL,Volusia,127,Volusia
110,201107348,W-624788,FED,DOI-WFMI,BLM,USCACND,Central California District,CACND,Central California, , ,F9A5,58 COMPLEX, , , , ,58 COMPLEX,2011,8/3/2011 0:00:00,215,1620,11.000000000000000,Powerline,8/4/2011 0:00:00,216,0800,665.000000000000000,E,35.291699999999999,-119.661900000000003,1.000000000000000,BLM,CA, , , 
111,201107385,W-627564,FED,DOI-WFMI,BLM,USCACND,Central California District,CACND,Central California, , ,GF4Z,JOHN,CA-BDU-010475,JOHN,CA3713411828320110913,JOHN, ,2011,9/13/2011 0:00:00,256,1330,2.000000000000000,Equipment Use,9/16/2011 0:00:00,259,0800,5353.000000000000000,G,37.137799999999999,-118.282200000000003,1.000000000000000,BLM,CA,Inyo,027,Inyo
112,201107393,W-628190,FED,DOI-WFMI,BLM,USCACND,Central California District,CACND,Central California, , ,GFM9,COMMANCHE,CA-KRN-027933,COMANCHE,CA3511711878320110910,COMANCHE,COMANCHE COMPLEX,2011,9/10/2011 0:00:00,253,0930,1.000000000000000,Lightning,9/16/2011 0:00:00,259,1800,25577.000000000000000,G,35.113900000000001,-118.166700000000006,8.000000000000000,PRIVATE,CA, , , 
113,201107408,W-628202,FED,DOI-WFMI,BLM,USCACND,Central California District,CACND,Central California, , ,GGT0,INDIAN,CA-KRN-027912,KEENE Complex,CA3511811837820110910,KEENECOMPLEX,KEENE COMPLEX,2011,9/10/2011 0:00:00,253,0930,1.000000000000000,Lightning,9/15/2011 0:00:00,258,1800,810.000000000000000,E,35.306100000000001,-118.539400000000001,8.000000000000000,PRIVATE,CA, , , 
114,201107409,W-628188,FED,DOI-WFMI,BLM,USCACND,Central California District,CACND,Central California, , ,GGT9,CALIENTE,CA-KRN-027912,KEENE Complex,CA3511811837820110910,KEENECOMPLEX,KEENE COMPLEX,2011,9/10/2011 0:00:00,253,0930,1.000000000000000,Lightning,9/10/2011 0:00:00,253,2230,552.000000000000000,E,35.268900000000002,-118.652500000000003,8.000000000000000,PRIVATE,CA, , , 
115,201109037,W-618619,FED,DOI-WFMI,BLM,USNMLCD,Las Cruces Field Office,NMLCD,Las Cruces Field Office, , ,F0XB,DOG CANYON,NM-CAD-00011,DOG CANYON,NM3202810492620110224,DOGCANYON, ,2011,2/24/2011 0:00:00,55,1717,9.000000000000000,Miscellaneous,3/3/2011 0:00:00,62,1000,3418.000000000000000,F,32.073099999999997,-104.974400000000003,1.000000000000000,BLM,NM,Otero,035,Otero
116,201109038,W-618819,FED,DOI-WFMI,BLM,USNMLCD,Las Cruces Field Office,NMLCD,Las Cruces Field Office, , ,F11X,GREEN CHILE,NM-N3S-000250,Green Chile,NM3261410729020110403,GREENCHILE, ,2011,4/3/2011 0:00:00,93,1552,13.000000000000000,Missing/Undefined,4/5/2011 0:00:00,95,1440,1400.000000000000000,F,32.597499999999997,-107.290300000000002,7.000000000000000,STATE,NM,Luna,029,Luna
117,201109049,W-619314,FED,DOI-WFMI,BLM,USNMLCD,Las Cruces Field Office,NMLCD,Las Cruces Field Office, , ,F2D0,CENTENNIAL,NM-LCD-000279,CENTENNIAL,NM3235010584620110411,CENTENNIAL, ,2011,4/11/2011 0:00:00,101,1300,7.000000000000000,Arson,4/13/2011 0:00:00,103,1900,5181.000000000000000,G,32.348100000000002,-105.846400000000003,1.000000000000000,BLM,NM,Otero,035,Otero
118,201109053,W-619986,FED,DOI-WFMI,BLM,USNMLCD,Las Cruces Field Office,NMLCD,Las Cruces Field Office, , ,F2SC,RANGE 66B, , , , , ,2011,4/20/2011 0:00:00,110,1553,7.000000000000000,Arson,4/20/2011 0:00:00,110,2130,1100.000000000000000,F,32.307499999999997,-106.470299999999995,1.000000000000000,BLM,NM,Otero,035,Otero
119,201109062,W-624050,FED,DOI-WFMI,BLM,USNMLCD,Las Cruces Field Office,NMLCD,Las Cruces Field Office, , ,F4U2,AUGUSTINE,NM-LCD-000502,Augustine,NM3242810655220110610,AUGUSTINE, ,2011,6/10/2011 0:00:00,161,1735,2.000000000000000,Equipment Use,6/15/2011 0:00:00,166,1153,1472.000000000000000,F,32.428100000000001,-106.552499999999995,1.000000000000000,BLM,NM,Dona Ana,013,Dona Ana
120,201109068,W-624024,FED,DOI-WFMI,BLM,USNMLCD,Las Cruces Field Office,NMLCD,Las Cruces Field Office, , ,F5Z6,OTERO MESA,NM-LCD-000578,Otero Mesa,NM3238510580520110701,OTEROMESA, ,2011,7/1/2011 0:00:00,182,1207,7.000000000000000,Arson,7/2/2011 0:00:00,183,1400,1246.000000000000000,F,32.384700000000002,-105.805300000000003,1.000000000000000,BLM,NM,Otero,035,Otero
121,201120015,FWS-2011TXHGRF7C9,FED,FWS-FMIS,FWS,USTXHGR,Hagerman National Wildlife Refuge,TXHGR,HAGERMAN NATIONAL WILDLIFE REFUGE, , ,F7C9,SANDY CREEK,OK-WMR-,Sandy Creek, , , ,2011,7/10/2011 0:00:00,191,1630,5.000000000000000,Debris Burning,7/17/2011 0:00:00,198,1200,550.000000000000000,E,33.750555560000002,-96.810277780000007,8.000000000000000,PRIVATE,TX, , , 
122,201120031,FWS-2011WAMNRF9Q0,FED,FWS-FMIS,FWS,USWAMNR,McNary National Wildlife Refuge,WAMNR,MCNARY NATIONAL WILDLIFE REFUGE, , ,F9Q0,HATCH GRADE,WA-WFS-202,Vansycle Canyon,WA4603011885720110807,VANSYCLECANYON, ,2011,8/7/2011 0:00:00,219,1400,9.000000000000000,Miscellaneous,8/13/2011 0:00:00,225,2345,5000.000000000000000,G,46.011111110000002,-118.815833330000004,8.000000000000000,PRIVATE,WA, , , 
123,201120041,FWS-2011OKTSRF1K3,FED,FWS-FMIS,FWS,USOKTSR,Tishomingo National Wildlife Refuge,OKTSR,TISHOMINGO NATIONAL WILDLIFE REFUGE, , ,F1K3,BELL CREEK, , , , , ,2011,3/15/2011 0:00:00,74,1230,5.000000000000000,Debris Burning,3/16/2011 0:00:00,75,0800,512.000000000000000,E,34.161111110000000,-96.657499999999999,4.000000000000000,FWS,OK, , , 
124,201142795,2011OKOFS1-2011-10081-A,NONFED,ST-NASF,ST/C&L,USOKOKS,Oklahoma Division of Forestry,OKOFS,Oklahoma Forestry Services, ,1-2011-10081-A, ,10081,OK-SEU-11-10081,Valley X, , , ,2011,3/10/2011 0:00:00,69,2035,7.000000000000000,Arson,3/10/2011 0:00:00,69,2035,800.000000000000000,E,34.551833340000002,-95.857166669999998,8.000000000000000,PRIVATE,OK,Atoka,005,Atoka
125,201142799,2011OKOFS1-2011-10085-A,NONFED,ST-NASF,ST/C&L,USOKOKS,Oklahoma Division of Forestry,OKOFS,Oklahoma Forestry Services, ,1-2011-10085-A, ,10085,OK-SEU-11-10085,Middle Mountain,OK3465709551720110311,MIDDLEMOUNTAIN, ,2011,3/11/2011 0:00:00,70,0515,7.000000000000000,Arson,3/12/2011 0:00:00,71,0515,1600.000000000000000,F,34.654166670000002,-95.517000010000004,8.000000000000000,PRIVATE,OK,Pushmataha,127,Pushmataha
126,201142800,2011OKOFS1-2011-10086-A,NONFED,ST-NASF,ST/C&L,USOKOKS,Oklahoma Division of Forestry,OKOFS,Oklahoma Forestry Services, ,1-2011-10086-A, ,10086,OK-SEU-11-10086,Limestone, , , ,2011,3/11/2011 0:00:00,70,0100,9.000000000000000,Miscellaneous,3/12/2011 0:00:00,71,0100,950.000000000000000,E,34.640000030000003,-95.890333299999995,8.000000000000000,PRIVATE,OK,Atoka,005,Atoka
127,201142819,2011OKOFS1-2011-10105-A,NONFED,ST-NASF,ST/C&L,USOKOKS,Oklahoma Division of Forestry,OKOFS,Oklahoma Forestry Services, ,1-2011-10105-A, ,10105,OK-SEU-11-10105,High Center, , , ,2011,3/17/2011 0:00:00,76,2130,7.000000000000000,Arson,3/17/2011 0:00:00,76,2130,600.000000000000000,E,34.645999969999998,-95.912000019999994,8.000000000000000,PRIVATE,OK,Atoka,005,Atoka
128,201143997,2011OKOFS1-2011-10046-A,NONFED,ST-NASF,ST/C&L,USOKOKS,Oklahoma Division of Forestry,OKOFS,Oklahoma Forestry Services, ,1-2011-10046-A, ,10046,OK-SEU-11-10046,Billy Bryant, , , ,2011,2/22/2011 0:00:00,53,0845,2.000000000000000,Equipment Use,2/24/2011 0:00:00,55,0845,680.000000000000000,E,34.502166649999999,-96.008333329999999,8.000000000000000,PRIVATE,OK,Atoka,005,Atoka
129,201144012,2011OKOFS1-2011-10519-b,NONFED,ST-NASF,ST/C&L,USOKOKS,Oklahoma Division of Forestry,OKOFS,Oklahoma Forestry Services, ,1-2011-10519-b, ,10519,OK-SEU-11_10519,Pine Top, , , ,2011,9/3/2011 0:00:00,246,2145,9.000000000000000,Miscellaneous,9/3/2011 0:00:00,246,2145,600.000000000000000,E,33.989499979999998,-94.680166689999993,12.000000000000000,MUNICIPAL/LOCAL,OK,McCurtain,089,McCurtain
130,201144019,2011OKOFS1-2011-10526-A,NONFED,ST-NASF,ST/C&L,USOKOKS,Oklahoma Division of Forestry,OKOFS,Oklahoma Forestry Services, ,1-2011-10526-A, ,10526,OK-SEU-11-10526,Caney Creek,OK3425009521720110904,CANEYCREEK, ,2011,9/4/2011 0:00:00,247,1030,7.000000000000000,Arson,9/8/2011 0:00:00,251,1030,2000.000000000000000,F,34.248666669999999,-95.212500000000006,12.000000000000000,MUNICIPAL/LOCAL,OK,Pushmataha,127,Pushmataha
131,201145350,2011NENFS14240,NONFED,ST-NASF,ST/C&L,USNENES,Nebraska Department of Forestry,NENFS,Nebraska Forest Service, ,14240, , , , , , , ,2011,10/6/2011 0:00:00,279,1615,11.000000000000000,Powerline,10/7/2011 0:00:00,280,0030,600.000000000000000,E,41.352973939999998,-100.421905499999994,14.000000000000000,MISSING/NOT SPECIFIED,NE, , , 
132,201146742,2011FLFLS2011140324,NONFED,ST-NASF,ST/C&L,USFLFLS,Florida Forest Service,FLFLS,Florida Forest Service, ,2011140324, ,NORALYN MINE ROAD (53), , , , , ,2011,5/26/2011 0:00:00,146,1845,9.000000000000000,Miscellaneous,5/27/2011 0:00:00,147,0256,520.000000000000000,E,27.852799999999998,-81.849699999999999,8.000000000000000,PRIVATE,FL,Polk,105,Polk
133,201149377,2011ILDNRILDNR1,NONFED,ST-NASF,ST/C&L,USILILS,Illinois Division of Forestry Resources,ILDNR,Illinois Department of Natural Resources, ,ILDNR1, ,PERE MARQUETTE,IL-ILS-346,Pere Marquette, , , ,2011,11/17/2011 0:00:00,321,1025,9.000000000000000,Miscellaneous,11/21/2011 0:00:00,325,1730,1475.000000000000000,F,39.000675999999999,-90.487475000000003,7.000000000000000,STATE,IL,Jersey,083,Jersey
134,201105260,W-620781,FED,DOI-WFMI,BIA,USNMZUA,Zuni Agency,NMZUA,Zuni Agency,47, ,F5J7,OJO, , , , , ,2011,6/23/2011 0:00:00,174,1445,5.000000000000000,Debris Burning,6/25/2011 0:00:00,176,1700,750.000000000000000,E,34.910299999999999,-108.951099999999997,2.000000000000000,BIA,NM, , , 
135,201105340,W-618790,FED,DOI-WFMI,BIA,USAZFTA,Fort Apache Agency,AZFTA,Fort Apache Agency,31, ,F2E4,KINISHBA, , , , , ,2011,4/12/2011 0:00:00,102,1250,2.000000000000000,Equipment Use,4/14/2011 0:00:00,104,1730,713.000000000000000,E,33.792444000000003,-110.048625000000001,2.000000000000000,BIA,AZ, , , 
136,201107494,W-630260,FED,DOI-WFMI,BLM,USCANOD,Northern California District,CANOD,NorCal District, , ,GA46,ANNIE,CA-NOD-3546,Annie,CA4189912012320110818,ANNIE, ,2011,8/18/2011 0:00:00,230,1046,13.000000000000000,Missing/Undefined,8/26/2011 0:00:00,238,1200,2076.000000000000000,F,41.899749999999997,-120.122529999999998,8.000000000000000,PRIVATE,CA,Modoc,049,Modoc
137,201109073,W-625778,FED,DOI-WFMI,BLM,USNMLCD,Las Cruces Field Office,NMLCD,Las Cruces Field Office, , ,F9YB,INDIAN DRAW,NM-LCD-000937,INDIAN DRAW,NM3241610542920110809,INDIANDRAW, ,2011,8/9/2011 0:00:00,221,1826,1.000000000000000,Lightning,8/12/2011 0:00:00,224,1500,2879.000000000000000,F,32.417800000000000,-105.423599999999993,1.000000000000000,BLM,NM,Otero,035,Otero
138,201109087,W-617774,FED,DOI-WFMI,BLM,USNMROD,Roswell Field Office,NMROD,Roswell Field Office, , ,F0CX,BOGLE,NM-N5S-098,Bogle,NM3300510380120110123,BOGLE, ,2011,1/23/2011 0:00:00,23,0932,13.000000000000000,Missing/Undefined,1/25/2011 0:00:00,25,1700,993.000000000000000,E,33.005000000000003,-103.800799999999995,8.000000000000000,PRIVATE,NM,Chaves,005,Chaves
139,201109091,W-618991,FED,DOI-WFMI,BLM,USNMROD,Roswell Field Office,NMROD,Roswell Field Office, , ,F0X8,ENTERPRISE,NM-N5S-133,ENTERPRISE,NM3307510377520110227,ENTERPRISE, ,2011,2/27/2011 0:00:00,58,1440,13.000000000000000,Missing/Undefined,2/28/2011 0:00:00,59,1600,64936.000000000000000,G,33.052199999999999,-103.800600000000003,8.000000000000000,PRIVATE,NM,Chaves,005,Chaves
140,201109109,W-621446,FED,DOI-WFMI,BLM,USNMROD,Roswell Field Office,NMROD,Roswell Field Office, , ,F3HD,CROOKEDCREEK COMPLEX,NM-ROD-000011,CROOKED CREEK,NM3305810489320110506,CROOKEDCREEK,CROOKED CREEK COMPLEX,2011,5/6/2011 0:00:00,126,1324,1.000000000000000,Lightning,5/17/2011 0:00:00,137,1200,18199.000000000000000,G,33.048099999999998,-104.888300000000001,1.000000000000000,BLM,NM,Chaves,005,Chaves
141,201109118,W-621509,FED,DOI-WFMI,BLM,USNMROD,Roswell Field Office,NMROD,Roswell Field Office, , ,F4HH,BROWN LAKE,NM-ROD-000454,Brown Lake,NM3370010486420110601,BROWNLAKE, ,2011,6/1/2011 0:00:00,152,1747,1.000000000000000,Lightning,6/2/2011 0:00:00,153,1130,968.000000000000000,E,33.699700000000000,-104.863600000000005,1.000000000000000,BLM,NM,Chaves,005,Chaves
142,201109131,W-621801,FED,DOI-WFMI,BLM,USNMROD,Roswell Field Office,NMROD,Roswell Field Office, , ,F5SM,GRAMMA VALLEY,NM-N5S-000586,Gramma Valley,NM3410910475620110627,GRAMMAVALLEY, ,2011,6/27/2011 0:00:00,178,1945,1.000000000000000,Lightning,6/29/2011 0:00:00,180,1200,920.000000000000000,E,34.109200000000001,-104.756100000000004,8.000000000000000,PRIVATE,NM,Chaves,005,Chaves
143,201109136,W-621805,FED,DOI-WFMI,BLM,USNMROD,Roswell Field Office,NMROD,Roswell Field Office, , ,F5Y9,GALLO,NM-ROD-000021,Gallo, , , ,2011,6/30/2011 0:00:00,181,1549,1.000000000000000,Lightning,7/2/2011 0:00:00,183,1330,859.000000000000000,E,34.002800000000001,-105.122200000000007,1.000000000000000,BLM,NM,Chaves,005,Chaves
144,201109140,W-627882,FED,DOI-WFMI,BLM,USNMROD,Roswell Field Office,NMROD,Roswell Field Office, , ,F70A,DEEP WELL,NM-ROD-029,Deep Well,NM3375910483320110720,DEEPWELL, ,2011,7/20/2011 0:00:00,201,1545,1.000000000000000,Lightning,7/21/2011 0:00:00,202,1130,1660.000000000000000,F,33.758600000000001,-104.833100000000002,1.000000000000000,BLM,NM,Chaves,005,Chaves
145,201109153,W-626183,FED,DOI-WFMI,BLM,USNMROD,Roswell Field Office,NMROD,Roswell Field Office, , ,F85Q,LINCOLNCANYON COMPLX,NM-N5S-000100,Lincoln Canyon,NM3307110526320110802,LINCOLNCANYONCOMPLX,LINCOLN COMPLEX,2011,8/2/2011 0:00:00,214,2340,1.000000000000000,Lightning,8/8/2011 0:00:00,220,1800,9428.000000000000000,G,33.071399999999997,-105.263300000000001,8.000000000000000,PRIVATE,NM,Chaves,005,Chaves
146,201109160,W-627835,FED,DOI-WFMI,BLM,USNMROD,Roswell Field Office,NMROD,Roswell Field Office, , ,F9RG,BATON ROUGE COMPLEX,NM-ROD-000037,Baton Rouge Complex,NM3322210500120110807,BATONROUGECOMPLEX,BATON ROUGE COMPLEX,2011,8/7/2011 0:00:00,219,1424,1.000000000000000,Lightning,8/20/2011 0:00:00,232,0600,35165.000000000000000,G,33.221699999999998,-105.001400000000004,1.000000000000000,BLM,NM,Chaves,005,Chaves
147,201109165,W-626233,FED,DOI-WFMI,BLM,USNMROD,Roswell Field Office,NMROD,Roswell Field Office, , ,GA6D,CROOKED COMPLEX,NM-ROD-000042,Crooked Complex,NM3313310507720110818,CROOKEDCOMPLEX,CROOKED COMPLEX,2011,8/18/2011 0:00:00,230,1452,1.000000000000000,Lightning,8/29/2011 0:00:00,241,1800,7017.000000000000000,G,33.132500000000000,-105.076700000000002,1.000000000000000,BLM,NM,Chaves,005,Chaves
148,201109174,W-627889,FED,DOI-WFMI,BLM,USNMROD,Roswell Field Office,NMROD,Roswell Field Office, , ,GEC3,VENUS, , ,NM3309810388420110903,VENUS, ,2011,9/3/2011 0:00:00,246,1415,9.000000000000000,Miscellaneous,9/7/2011 0:00:00,250,1800,1794.000000000000000,F,33.097799999999999,-103.884200000000007,1.000000000000000,BLM,NM,Chaves,005,Chaves
149,201109185,W-619180,FED,DOI-WFMI,BLM,USNMSCD,Socorro Field Office,NMSCD,Socorro Field Office, , ,F1ZM,SEVILLETA,NM-SER-00168,SEVILLETA,NM3444310680520110402,SEVILLETA, ,2011,4/2/2011 0:00:00,92,1410,13.000000000000000,Missing/Undefined,4/8/2011 0:00:00,98,1800,2700.000000000000000,F,34.330300000000001,-106.699700000000007,7.000000000000000,STATE,NM,Socorro,053,Socorro
150,201111058,W-625232,FED,DOI-WFMI,BLM,USUTRID,Richfield Field Office,UTRID,Richfield Field Office, , ,GAW5,WEST SAHARA,UT-RID-000245,West Sahara,UT3971911241920110815,WESTSAHARA, ,2011,8/15/2011 0:00:00,227,1721,1.000000000000000,Lightning,8/21/2011 0:00:00,233,1800,1056.000000000000000,F,39.719200000000001,-112.419200000000004,1.000000000000000,BLM,UT,Juab,023,Juab
151,201111065,W-625667,FED,DOI-WFMI,BLM,USUTRID,Richfield Field Office,UTRID,Richfield Field Office, , ,GBR5,LONG RIDGE,UT-RID-000295,Long Ridge, , , ,2011,8/21/2011 0:00:00,233,2320,1.000000000000000,Lightning,9/14/2011 0:00:00,257,1200,886.000000000000000,E,39.850600000000000,-111.933599999999998,1.000000000000000,BLM,UT,Millard,027,Millard
152,201111088,W-626448,FED,DOI-WFMI,BLM,USUTRID,Richfield Field Office,UTRID,Richfield Field Office, , ,GD41,JERICHO,UT-SCS-000388,Jericho,UT3965711220620110901,JERICHO, ,2011,9/1/2011 0:00:00,244,0230,1.000000000000000,Lightning,9/13/2011 0:00:00,256,1400,2192.000000000000000,F,39.654949999999999,-112.206649999999996,7.000000000000000,STATE,UT,Millard,027,Millard
153,201111140,W-622825,FED,DOI-WFMI,BLM,USUTSLD,Salt Lake Field Office,UTSLD,Salt Lake Field Office, , ,F76N,DYNO,UT-NWS-0240,Dyno, , , ,2011,7/22/2011 0:00:00,203,1248,9.000000000000000,Miscellaneous,7/23/2011 0:00:00,204,1900,504.000000000000000,E,40.254399999999997,-111.891700000000000,1.000000000000000,BLM,UT,Utah,049,Utah
154,201120079,FWS-2011OKWMRF9PS,FED,FWS-FMIS,FWS,USOKWMR,Wichita Mountains National Wildlife Refuge,OKWMR,WICHITA MOUNTAINS WILDLIFE REFUGE, , ,F9PS,FT SILL FIRE, , ,OK3469409849320110806,FTSILLFIRE, ,2011,8/6/2011 0:00:00,218,1800,9.000000000000000,Miscellaneous,8/8/2011 0:00:00,220,1800,2500.000000000000000,F,34.693611109999999,-98.492777779999997,6.000000000000000,OTHER FEDERAL,OK, , , 
155,201120086,FWS-2011OKWMRF5KE,FED,FWS-FMIS,FWS,USOKWMR,Wichita Mountains National Wildlife Refuge,OKWMR,WICHITA MOUNTAINS WILDLIFE REFUGE, , ,F5KE,MEDICINE PARK, , ,OK3472309849320110623,MEDICINEPARK, ,2011,6/23/2011 0:00:00,174,1600,9.000000000000000,Miscellaneous,6/28/2011 0:00:00,179,1800,2910.000000000000000,F,34.723333330000003,-98.493055560000002,6.000000000000000,OTHER FEDERAL,OK, , , 
156,201120088,FWS-2011OKWMRF2EM,FED,FWS-FMIS,FWS,USOKWMR,Wichita Mountains National Wildlife Refuge,OKWMR,WICHITA MOUNTAINS WILDLIFE REFUGE, , ,F2EM,INDIAHOMA WYE,OK-WMR-000001,Indiahoma Wye,OK3468909870320110412,INDIAHOMAWYE, ,2011,4/12/2011 0:00:00,102,1200,7.000000000000000,Arson,4/25/2011 0:00:00,115,0900,2621.000000000000000,F,34.695555560000003,-98.705555559999993,4.000000000000000,FWS,OK, , , 
157,201120111,FWS-2011TXTPRF4W3,FED,FWS-FMIS,FWS,USTXTPR,Texas Point National Wildlife Refuge,TXTPR,TEXAS POINT NATIONAL WILDLIFE REFUGE, , ,F4W3,WF TEXAS POINT WEST,TX-TCR-000002,WF TEXAS POINT WEST, , , ,2011,6/12/2011 0:00:00,163,1515,9.000000000000000,Miscellaneous,6/21/2011 0:00:00,172,1700,3448.000000000000000,F,29.690833330000000,-93.961111110000004,8.000000000000000,PRIVATE,TX, , , 
158,201120114,FWS-2011TXTPRF0Y1,FED,FWS-FMIS,FWS,USTXTPR,Texas Point National Wildlife Refuge,TXTPR,TEXAS POINT NATIONAL WILDLIFE REFUGE, , ,F0Y1,WF TEXAS POINT AIR LOG FIRE, , , , , ,2011,3/1/2011 0:00:00,60,0700,9.000000000000000,Miscellaneous,3/2/2011 0:00:00,61,1600,4161.000000000000000,F,29.713888890000000,-93.901111110000002,8.000000000000000,PRIVATE,TX, , , 
159,201142931,2011OKOFS1-2011-10243-A,NONFED,ST-NASF,ST/C&L,USOKOKS,Oklahoma Division of Forestry,OKOFS,Oklahoma Forestry Services, ,1-2011-10243-A, ,10243,OK-SEU-11-10243,Fobb Ridge, , , ,2011,6/16/2011 0:00:00,167,1600,1.000000000000000,Lightning,6/22/2011 0:00:00,173,1600,551.000000000000000,E,34.489999990000001,-95.585500019999998,12.000000000000000,MUNICIPAL/LOCAL,OK,Pushmataha,127,Pushmataha
160,201145488,2011OKOFS3-2011-30434-A,NONFED,ST-NASF,ST/C&L,USOKOKS,Oklahoma Division of Forestry,OKOFS,Oklahoma Forestry Services, ,3-2011-30434-A, ,30434,OK-NEU-11-30434,County Line, , , ,2011,8/8/2011 0:00:00,220,2000,2.000000000000000,Equipment Use,8/8/2011 0:00:00,220,2000,580.000000000000000,E,36.667900019999998,-94.631066640000000,8.000000000000000,PRIVATE,OK,Delaware,041,Delaware
161,201146794,2011FLFLS2011150316,NONFED,ST-NASF,ST/C&L,USFLFLS,Florida Forest Service,FLFLS,Florida Forest Service, ,2011150316, ,08-BABCOCK RANCH FIRE 2-0316,FL-FLS-2011-15-0316,BABCOCK RANCH FIRE,FL2685608158920110330,BABCOCKRANCHFIRE, ,2011,4/30/2011 0:00:00,120,1155,1.000000000000000,Lightning,4/30/2011 0:00:00,120,1842,778.000000000000000,E,26.855799999999999,-81.589200000000005,14.000000000000000,MISSING/NOT SPECIFIED,FL,Charlotte,015,Charlotte
162,201148175,2011CACDFSLU007086,NONFED,ST-NASF,ST/C&L,USCASLU,San Luis Obispo Unit,CASLU,San Luis Obispo Unit, ,SLU007086, ,SODA, , , , , ,2011,9/3/2011 0:00:00,246,1456,2.000000000000000,Equipment Use,,0, ,1528.000000000000000,F,35.351388999999998,-120.005278000000004,14.000000000000000,MISSING/NOT SPECIFIED,CA,SAN LUIS OBISPO,079,San Luis Obispo
163,201109202,W-627196,FED,DOI-WFMI,BLM,USNMSCD,Socorro Field Office,NMSCD,Socorro Field Office, , ,GB8L,CATFISH,NM-SCD-739,Catfish, , , ,2011,8/24/2011 0:00:00,236,1719,1.000000000000000,Lightning,8/28/2011 0:00:00,240,1500,550.000000000000000,E,33.529136000000001,-107.104442000000006,10.000000000000000,BOR,NM,Socorro,053,Socorro
164,201109238,W-625927,FED,DOI-WFMI,BLM,USNVBMD,Battle Mountain District Office,NVBMD,Battle Mountain Field Office, , ,GC08,ELLISON,NV-BMD-000290,Ellison,NV3998511750620110827,ELLISON, ,2011,8/27/2011 0:00:00,239,0130,9.000000000000000,Miscellaneous,8/31/2011 0:00:00,243,1600,1039.500000000000000,F,39.984999999999999,-117.505799999999994,1.000000000000000,BLM,NV,Lander,015,Lander
165,201109258,W-629306,FED,DOI-WFMI,BLM,USNVBMD,Battle Mountain District Office,NVBMD,Battle Mountain Field Office, , ,GHR2,FIRE CREEK,NV-BMD-380,Fire Creek,NV4051411664320110930,FIRECREEK, ,2011,9/30/2011 0:00:00,273,1925,1.000000000000000,Lightning,10/4/2011 0:00:00,277,1800,1445.000000000000000,F,40.514400000000002,-116.643100000000004,1.000000000000000,BLM,NV,Lander,015,Lander
166,201111145,W-622296,FED,DOI-WFMI,BLM,USUTSLD,Salt Lake Field Office,UTSLD,Salt Lake Field Office, , ,F7LK,LAKESIDE,UT-SLD-0213,Lakeside,UT4083411277420110716,LAKESIDE, ,2011,7/16/2011 0:00:00,197,1231,9.000000000000000,Miscellaneous,7/20/2011 0:00:00,201,1904,16267.000000000000000,G,40.833900000000000,-112.773899999999998,1.000000000000000,BLM,UT,Tooele,045,Tooele
167,201111147,W-622589,FED,DOI-WFMI,BLM,USUTSLD,Salt Lake Field Office,UTSLD,Salt Lake Field Office, , ,F7R9,GOOSE NEST,UT-SLD-000225,Goose Nest,UT3985611196320110718,GOOSENEST, ,2011,7/18/2011 0:00:00,199,1657,1.000000000000000,Lightning,7/22/2011 0:00:00,203,2000,1079.000000000000000,F,39.855800000000002,-111.962500000000006,1.000000000000000,BLM,UT,Utah,049,Utah
168,201111164,W-624181,FED,DOI-WFMI,BLM,USUTSLD,Salt Lake Field Office,UTSLD,Salt Lake Field Office, , ,F9LM,CHAPARRAL,UT-SLD-000309,Chaparral,UT4021411190120110806,CHAPARRAL, ,2011,8/6/2011 0:00:00,218,1456,9.000000000000000,Miscellaneous,8/10/2011 0:00:00,222,1800,1712.000000000000000,F,40.213600000000000,-111.901100000000000,1.000000000000000,BLM,UT,Utah,049,Utah
169,201111173,W-625491,FED,DOI-WFMI,BLM,USUTSLD,Salt Lake Field Office,UTSLD,Salt Lake Field Office, , ,GA9C,LOCOMOTIVE,UT-SLD-000391,Locomotive,UT4182911286620110820,LOCOMOTIVE, ,2011,8/20/2011 0:00:00,232,1159,1.000000000000000,Lightning,8/22/2011 0:00:00,234,1600,5916.000000000000000,G,41.828600000000002,-112.865300000000005,1.000000000000000,BLM,UT,Box Elder,003,Box Elder
170,201111189,W-625493,FED,DOI-WFMI,BLM,USUTSLD,Salt Lake Field Office,UTSLD,Salt Lake Field Office, , ,GBC6,RATTLESNAKE PASS,UT-BRS-000396,Rattlesnake Pass,UT4194611259120110820,RATTLESNAKEPASS, ,2011,8/20/2011 0:00:00,232,1239,1.000000000000000,Lightning,8/21/2011 0:00:00,233,2000,1421.000000000000000,F,41.945799999999998,-112.591399999999993,7.000000000000000,STATE,UT,Box Elder,003,Box Elder
171,201111206,W-626413,FED,DOI-WFMI,BLM,USUTSLD,Salt Lake Field Office,UTSLD,Salt Lake Field Office, , ,GD4S,MAPLE CANYON,UT-BRS-000538,Maple Canyon,UT4149411255520110831,MAPLECANYON, ,2011,8/31/2011 0:00:00,243,1905,1.000000000000000,Lightning,9/2/2011 0:00:00,245,2030,4900.000000000000000,F,41.493299999999998,-112.555000000000007,8.000000000000000,PRIVATE,UT,Box Elder,003,Box Elder
172,201111224,W-629135,FED,DOI-WFMI,BLM,USUTSLD,Salt Lake Field Office,UTSLD,Salt Lake Field Office, , ,GHN2,HANCOCK,UT-SLD-000647,Hancock,UT3981911197420110930,HANCOCK, ,2011,9/30/2011 0:00:00,273,1757,1.000000000000000,Lightning,10/5/2011 0:00:00,278,1400,1404.000000000000000,F,39.841400000000000,-112.010800000000003,1.000000000000000,BLM,UT,Utah,049,Utah
173,201111227,W-629208,FED,DOI-WFMI,BLM,USUTSLD,Salt Lake Field Office,UTSLD,Salt Lake Field Office, , ,GHX6,TIMPIE 2,UT-SLD-000652,Timpie 2, , , ,2011,10/1/2011 0:00:00,274,1511,9.000000000000000,Miscellaneous,10/4/2011 0:00:00,277,1700,849.000000000000000,E,40.737200000000001,-112.631699999999995,1.000000000000000,BLM,UT,Tooele,045,Tooele
174,201120128,FWS-2011TXBFRF47L,FED,FWS-FMIS,FWS,USTXBFR,Buffalo Lake National Wildlife Refuge,TXBFR,BUFFALO LAKE NATIONAL WILDLIFE REFUGE, , ,F47L,EAST HEREFORD, , , , , ,2011,5/24/2011 0:00:00,144,1400,9.000000000000000,Miscellaneous,5/25/2011 0:00:00,145,1500,5000.000000000000000,G,34.901666669999997,-102.166666669999998,8.000000000000000,PRIVATE,TX, , , 
175,201120140,FWS-2011TXSRRFZ6K,FED,FWS-FMIS,FWS,USTXSRR,South Texas Refuge Complex,TXSRR,SOUTH TEXAS REFUGES COMPLEX, , ,FZ6K,KING RANCH, , ,TX2672909780020110102,KINGRANCH, ,2011,1/2/2011 0:00:00,2,1400,9.000000000000000,Miscellaneous,1/4/2011 0:00:00,4,1200,8000.000000000000000,G,26.729166670000001,-97.799999999999997,8.000000000000000,PRIVATE,TX, , , 
176,201120143,FWS-2011OKWMRF2L4,FED,FWS-FMIS,FWS,USOKWMR,Wichita Mountains National Wildlife Refuge,OKWMR,WICHITA MOUNTAINS WILDLIFE REFUGE, , ,F2L4,CACHE ASSIST, , ,OK3462309854520110415,CACHEASSIST, ,2011,4/15/2011 0:00:00,105,1300,9.000000000000000,Miscellaneous,4/15/2011 0:00:00,105,2200,4500.000000000000000,F,34.623333330000001,-98.545000000000002,8.000000000000000,PRIVATE,OK, , , 
177,201120144,FWS-2011OKWMRGD6Q,FED,FWS-FMIS,FWS,USOKWMR,Wichita Mountains National Wildlife Refuge,OKWMR,WICHITA MOUNTAINS WILDLIFE REFUGE, , ,GD6Q,FERGUSON,OK-WMR-011088,Ferguson,OK3471109880020110901,FERGUSON, ,2011,9/1/2011 0:00:00,244,1400,2.000000000000000,Equipment Use,9/9/2011 0:00:00,252,1200,39907.000000000000000,G,34.711111109999997,-98.613333330000003,4.000000000000000,FWS,OK, , , 
178,201120153,FWS-2011NMBTRF39Q,FED,FWS-FMIS,FWS,USNMBTR,Bitter Lake National Wildlife Refuge,NMBTR,BITTER LAKE NATIONAL WILDLIFE REFUGE, , ,F39Q,BOOT 2, , ,NM3409310479420110527,BOOT 2, ,2011,5/27/2011 0:00:00,147,1245,9.000000000000000,Miscellaneous,5/28/2011 0:00:00,148,1330,1113.000000000000000,F,34.092500000000001,-104.794444440000007,4.000000000000000,FWS,NM, , , 
179,201120157,FWS-2011MNAGRGJ5S,FED,FWS-FMIS,FWS,USMNAGR,Agassiz National Wildlife Refuge,MNAGR,AGASSIZ NATIONAL WILDLIFE REFUGE, , ,GJ5S,SILO WILDFIRE,MN-AGR-000003,Silo,MN4828309604620111024,SILOWILDFIRE, ,2011,10/24/2011 0:00:00,297,0730,5.000000000000000,Debris Burning,11/14/2011 0:00:00,318,0730,1133.000000000000000,F,48.282677999999997,-96.046449999999993,4.000000000000000,FWS,MN, , , 
180,201120168,FWS-2011TXBFRF70K,FED,FWS-FMIS,FWS,USTXBFR,Buffalo Lake National Wildlife Refuge,TXBFR,BUFFALO LAKE NATIONAL WILDLIFE REFUGE, , ,F70K,GABLE FIRE,TX-TXS-011293,Gable,TX3481510239520110720,GABLE, ,2011,7/20/2011 0:00:00,201,1745,2.000000000000000,Equipment Use,7/20/2011 0:00:00,201,2300,656.000000000000000,E,34.799999999999997,-102.239999999999995,8.000000000000000,PRIVATE,TX, , , 
181,201148257,2011CACDFLNU006369,NONFED,ST-NASF,ST/C&L,USCALNU,Sonoma-Lake Napa Unit,CALNU,Sonoma-Lake Napa Unit, ,LNU006369, ,KNOXVILLE,CA-LNU-0006369,Knoxville, , , ,2011,8/13/2011 0:00:00,225,1445,13.000000000000000,Missing/Undefined,,0, ,506.000000000000000,E,38.723999999999997,-122.275999999999996,7.000000000000000,STATE,CA,NAPA,055,Napa
182,201151496,2011FLFLS2011160486,NONFED,ST-NASF,ST/C&L,USFLFLS,Florida Forest Service,FLFLS,Florida Forest Service, ,2011160486, ,GUM SLOUGH (47 ),FL-FLS-2011-16-0486,Gum Slough Fire,FL2763608102220110529,GUMSLOUGHFIRE, ,2011,5/29/2011 0:00:00,149,1550,1.000000000000000,Lightning,5/31/2011 0:00:00,151,1449,3175.099999999999909,F,27.635800000000000,-81.022199999999998,7.000000000000000,STATE,FL,Okeechobee,093,Okeechobee
183,201153082,2011FLFLS2011160242,NONFED,ST-NASF,ST/C&L,USFLFLS,Florida Forest Service,FLFLS,Florida Forest Service, ,2011160242, ,(OK) RED BARN (242),FL-FLS-2011-16-0242,TRIPLE S RANCH,FL2741508075420110314,TRIPLESRANCH, ,2011,3/14/2011 0:00:00,73,1900,5.000000000000000,Debris Burning,3/14/2011 0:00:00,73,2349,765.299999999999955,E,27.414899999999999,-80.754099999999994,8.000000000000000,PRIVATE,FL,Okeechobee,093,Okeechobee
184,201153092,2011FLFLS2011100155,NONFED,ST-NASF,ST/C&L,USFLFLS,Florida Forest Service,FLFLS,Florida Forest Service, ,2011100155, ,WF- 55  KELLER,FL-FLS-2011-10-0155,KELLER,FL2968408132820110228,KELLER, ,2011,2/27/2011 0:00:00,58,1544,2.000000000000000,Equipment Use,3/6/2011 0:00:00,65,1606,1134.000000000000000,F,29.683800000000002,-81.328400000000002,8.000000000000000,PRIVATE,FL,St. Johns,109,St. Johns
185,201105544,W-619803,FED,DOI-WFMI,BIA,USAZFYA,Fort Yuma Agency,AZFYA,Fort Yuma Agency,530, ,F3X3,LAGUNA,AZ-FYA-110530,LAGUNA, , , ,2011,5/18/2011 0:00:00,138,1551,7.000000000000000,Arson,5/30/2011 0:00:00,150,2000,751.000000000000000,E,32.818899999999999,-114.509200000000007,2.000000000000000,BIA,CA, , , 
186,201107696,W-627205,FED,DOI-WFMI,BLM,USCOCRD,Northwest District,COCRD,Craig NW Center, , ,GCZ8,LADORE,CO-LSD-399,Ladore, , , ,2011,8/26/2011 0:00:00,238,1727,1.000000000000000,Lightning,9/8/2011 0:00:00,251,1800,1002.000000000000000,F,40.723599999999998,-108.921000000000006,1.000000000000000,BLM,CO,Moffat,081,Moffat
187,201109358,W-625254,FED,DOI-WFMI,BLM,USNVCCD,Carson City District Office,NVCCD,Carson City Field Office, , ,F8UW,WILDCAT,NV-CCD-0690,WILDCAT,NV3991711980520110730,WILDCAT, ,2011,7/30/2011 0:00:00,211,1323,1.000000000000000,Lightning,8/2/2011 0:00:00,214,1800,1875.000000000000000,F,39.944200000000002,-119.883600000000001,1.000000000000000,BLM,NV,Washoe,031,Washoe
188,201109359,W-624463,FED,DOI-WFMI,BLM,USNVCCD,Carson City District Office,NVCCD,Carson City Field Office, , ,F8UZ,RNOX 15,NV-RNOX-0696,BAIN, , , ,2011,7/30/2011 0:00:00,211,1557,8.000000000000000,Children,8/2/2011 0:00:00,214,1800,578.000000000000000,E,39.378100000000003,-119.714399999999998,8.000000000000000,PRIVATE,NV,Washoe,031,Washoe
189,201109383,W-631059,FED,DOI-WFMI,BLM,USNVCCD,Carson City District Office,NVCCD,Carson City Field Office, , ,GA1D,WNA 20,NV-CCD-793,RAY MAY,NV3884811963920110816,RAYMAY, ,2011,8/16/2011 0:00:00,228,1518,13.000000000000000,Missing/Undefined,8/26/2011 0:00:00,238,1800,3815.000000000000000,F,38.847499999999997,-119.639399999999995,2.000000000000000,BIA,NV,Douglas,005,Douglas
190,201109390,W-627258,FED,DOI-WFMI,BLM,USNVCCD,Carson City District Office,NVCCD,Carson City Field Office, , ,GB72,WNA 16,NV-CCD-000835,Great Stone,NV3997911943320110824,GREATSTONE, ,2011,8/24/2011 0:00:00,236,1708,1.000000000000000,Lightning,8/26/2011 0:00:00,238,1900,2377.000000000000000,F,39.969999999999999,-119.457200000000000,2.000000000000000,BIA,NV,Washoe,031,Washoe
191,201109429,W-631060,FED,DOI-WFMI,BLM,USNVCCD,Carson City District Office,NVCCD,Carson City Field Office, , ,GHM3,BURBANK,NV-CCD-1007,BURBANK,NV3883611939320110930,BURBANK, ,2011,9/30/2011 0:00:00,273,1543,1.000000000000000,Lightning,11/4/2011 0:00:00,308,0800,1113.000000000000000,F,38.836100000000002,-119.392799999999994,1.000000000000000,BLM,NV,Lyon,019,Lyon
192,201111276,W-632572,FED,DOI-WFMI,BLM,USWASPD,Spokane District,WASPD,Spokane District, , ,F41X,PLATH ROAD, , , , , ,2011,6/15/2011 0:00:00,166,1200,13.000000000000000,Missing/Undefined,6/16/2011 0:00:00,167,1800,1070.000000000000000,F,46.505499999999998,-120.397999999999996,1.000000000000000,BLM,WA,Yakima,077,Yakima
193,201111286,W-632597,FED,DOI-WFMI,BLM,USWASPD,Spokane District,WASPD,Spokane District, , ,F8G2,ROAD 29,WA-WFS-201,Road 29 Fire,WA4749511901720110725,ROAD29FIRE, ,2011,7/25/2011 0:00:00,206,1200,13.000000000000000,Missing/Undefined,7/26/2011 0:00:00,207,2000,2951.000000000000000,F,47.501899999999999,-119.030000000000001,1.000000000000000,BLM,WA,Grant,025,Grant
194,201111287,W-632614,FED,DOI-WFMI,BLM,USWASPD,Spokane District,WASPD,Spokane District, , ,F98D,HIGHWAY 17,WA-WFS-000203,Highway 17 Fire, , , ,2011,8/12/2011 0:00:00,224,1200,13.000000000000000,Missing/Undefined,8/13/2011 0:00:00,225,1800,600.000000000000000,E,47.649200000000000,-119.373000000000005,8.000000000000000,PRIVATE,WA,Grant,025,Grant
195,201111291,W-632655,FED,DOI-WFMI,BLM,USWASPD,Spokane District,WASPD,Spokane District, , ,GBQ5,WASHINGTON FLATS,WA-WFS-204,Washington Flats,WA4799211896720110821,WASHINGTONFLATS, ,2011,8/21/2011 0:00:00,233,1200,13.000000000000000,Missing/Undefined,8/23/2011 0:00:00,235,1800,1100.000000000000000,F,47.985799999999998,-119.001099999999994,10.000000000000000,BOR,WA,Douglas,017,Douglas
196,201111295,W-632667,FED,DOI-WFMI,BLM,USWASPD,Spokane District,WASPD,Spokane District, , ,GDT7,SALMON,WA-NES-000662,SALMON,WA4825011939020110829,SALMON, ,2011,8/29/2011 0:00:00,241,1200,13.000000000000000,Missing/Undefined,9/6/2011 0:00:00,249,1800,1910.000000000000000,F,48.436900000000001,-119.657499999999999,7.000000000000000,STATE,WA,Okanogan,047,Okanogan
197,201111298,W-632671,FED,DOI-WFMI,BLM,USWASPD,Spokane District,WASPD,Spokane District, , ,GGH1,BARBER MOUNTAIN,WA-NES-000786,BARBER MOUNTAIN, , , ,2011,9/18/2011 0:00:00,261,1505,13.000000000000000,Missing/Undefined,9/22/2011 0:00:00,265,1800,537.000000000000000,E,48.993299999999998,-119.701700000000002,1.000000000000000,BLM,WA,Okanogan,047,Okanogan
198,201111299,W-632673,FED,DOI-WFMI,BLM,USWASPD,Spokane District,WASPD,Spokane District, , ,GHA2,241, , , , , ,2011,9/28/2011 0:00:00,271,1550,13.000000000000000,Missing/Undefined,9/30/2011 0:00:00,273,1744,4310.000000000000000,F,46.455800000000004,-119.988900000000001,1.000000000000000,BLM,WA,Yakima,077,Yakima
199,201111311,W-630625,FED,DOI-WFMI,BLM,USWYBFD,Buffalo Field Office,WYBFD,Buffalo Field Office, , ,GB02,ROURKE,WY-HPD-011249,ROURKE,WY4449810543920110822,ROURKE, ,2011,8/22/2011 0:00:00,234,1300,1.000000000000000,Lightning,8/31/2011 0:00:00,243,2000,4212.000000000000000,F,44.498280000000001,-105.439189999999996,1.000000000000000,BLM,WY,Campbell,005,Campbell
200,201111312,W-630458,FED,DOI-WFMI,BLM,USWYBFD,Buffalo Field Office,WYBFD,Buffalo Field Office, , ,GC23,COLLINS 1,WY-CMX-011292,COLLINS 1,WY4469810555220110827,COLLINS1, ,2011,8/27/2011 0:00:00,239,1415,1.000000000000000,Lightning,8/30/2011 0:00:00,242,1800,1906.000000000000000,F,44.698599999999999,-105.520300000000006,8.000000000000000,PRIVATE,WY,Campbell,005,Campbell
201,201111313,W-630643,FED,DOI-WFMI,BLM,USWYBFD,Buffalo Field Office,WYBFD,Buffalo Field Office, , ,GC2F,SAND,WY-SH1X-011290,SAND DRAW, , , ,2011,8/27/2011 0:00:00,239,1144,1.000000000000000,Lightning,8/28/2011 0:00:00,240,1500,811.000000000000000,E,44.982999999999997,-106.326300000000003,8.000000000000000,PRIVATE,WY,Sheridan,033,Sheridan
202,201111332,W-630022,FED,DOI-WFMI,BLM,USWYBFD,Buffalo Field Office,WYBFD,Buffalo Field Office, , ,GH28,CAT CREEK,WY-HPD-011451,CAT CREEK,WY4413310626920111002,CATCREEK, ,2011,10/2/2011 0:00:00,275,1400,13.000000000000000,Missing/Undefined,10/3/2011 0:00:00,276,1800,1173.000000000000000,F,44.108919999999998,-106.278639999999996,1.000000000000000,BLM,WY,Johnson,019,Johnson
203,201120189,FWS-2011AZCBRGDB9,FED,FWS-FMIS,FWS,USAZCBR,Cibola National Wildlife Refuge,AZCBR,CIBOLA NATIONAL WILDLIFE REFUGE, , ,GDB9,THREE SLASHES,AZ-CBR-111250,THREE SLASHES,AZ3327111471120110829,THREESLASHES, ,2011,8/29/2011 0:00:00,241,0200,9.000000000000000,Miscellaneous,10/4/2011 0:00:00,277,1600,5169.000000000000000,G,33.270833330000002,-114.710833330000000,4.000000000000000,FWS,CA, , , 
204,201120192,FWS-2011IAPLRF2PF,FED,FWS-FMIS,FWS,USIAPLR,Port Louisa National Wildlife Refuge,IAPLR,PORT LOUISA NATIONAL WILDLIFE REFUGE, , ,F2PF,ACE AUTO, , ,IA4182809212220110403,ACEAUTO, ,2011,4/3/2011 0:00:00,93,1200,9.000000000000000,Miscellaneous,4/3/2011 0:00:00,93,1500,824.000000000000000,E,41.828000000000003,-92.122000000000000,4.000000000000000,FWS,IA, , , 
205,201120202,FWS-2011FLSJRF4DY,FED,FWS-FMIS,FWS,USFLSJR,St. Johns National Wildlife Refuge,FLSJR,ST. JOHNS NATIONAL WILDLIFE REFUGE, , ,F4DY,POINSETT,FL-FLS-2011-12-0495,Poinsette Fire,FL2833908089420110530,POINSETT, ,2011,5/30/2011 0:00:00,150,1230,1.000000000000000,Lightning,6/15/2011 0:00:00,166,1500,976.000000000000000,E,28.339444440000001,-80.894444440000001,4.000000000000000,FWS,FL, , , 
206,201120216,FWS-2011TXMCRGLX7,FED,FWS-FMIS,FWS,USTXMCR,McFaddin National Wildlife Refuge,TXMCR,MCFADDIN NATIONAL WILDLIFE REFUGE, , ,GLX7,WF GOOSE GULLY,TX-MCR-000002,WF Goose Gully,TX2974909411120111217,WFGOOSEGULLY, ,2011,12/17/2011 0:00:00,351,1430,2.000000000000000,Equipment Use,12/18/2011 0:00:00,352,1830,1523.400000000000091,F,29.738333330000000,-94.127499999999998,8.000000000000000,PRIVATE,TX, , , 
207,201120221,FWS-2011TXMCRGXQ4,FED,FWS-FMIS,FWS,USTXMCR,McFaddin National Wildlife Refuge,TXMCR,MCFADDIN NATIONAL WILDLIFE REFUGE, , ,GXQ4,WF NORTH UNIT/CABIN EASEMENT, , , , , ,2011,10/3/2011 0:00:00,276,2230,9.000000000000000,Miscellaneous,10/10/2011 0:00:00,283,1400,1238.000000000000000,F,29.770277780000001,-94.089444439999994,8.000000000000000,PRIVATE,TX, , , 
208,201120229,FWS-2011KSFLRF19K,FED,FWS-FMIS,FWS,USKSFLR,Flint Hills National Wildlife Refuge,KSFLR,FLINT HILLS NATIONAL WILDLIFE REFUGE, , ,F19K,V ROAD, , ,KS3844309648220110406,VROAD, ,2011,4/6/2011 0:00:00,96,1530,5.000000000000000,Debris Burning,4/6/2011 0:00:00,96,2000,5000.000000000000000,G,38.442777780000000,-96.482222219999997,8.000000000000000,PRIVATE,KS, , , 
209,201120257,FWS-2011FLSJRF2LE,FED,FWS-FMIS,FWS,USFLSJR,St. Johns National Wildlife Refuge,FLSJR,ST. JOHNS NATIONAL WILDLIFE REFUGE, , ,F2LE,MERRITT,FL-MIR-201115,Merritt,FL2845308084220110415,MERRITT, ,2011,4/15/2011 0:00:00,105,1130,7.000000000000000,Arson,6/15/2011 0:00:00,166,1500,800.000000000000000,E,28.453333330000000,-80.841666669999995,4.000000000000000,FWS,FL, , , 
210,201120259,FWS-2011FLSJRF0X2,FED,FWS-FMIS,FWS,USFLSJR,St. Johns National Wildlife Refuge,FLSJR,ST. JOHNS NATIONAL WILDLIFE REFUGE, , ,F0X2,FAIRFIELD,FL-FLS-2011-12-0158,FAIRFIELD,FL2855408085420110226,FAIRFIELD, ,2011,2/26/2011 0:00:00,57,1330,7.000000000000000,Arson,3/1/2011 0:00:00,60,1700,1800.000000000000000,F,28.554722219999999,-80.857500000000002,4.000000000000000,FWS,FL, , , 
211,201120264,FWS-2011NMBTRF3RX,FED,FWS-FMIS,FWS,USNMBTR,Bitter Lake National Wildlife Refuge,NMBTR,BITTER LAKE NATIONAL WILDLIFE REFUGE, , ,F3RX,MAGDALENA,NM-N5S-000307,Magdalena, , , ,2011,5/12/2011 0:00:00,132,1500,2.000000000000000,Equipment Use,5/14/2011 0:00:00,134,1700,596.000000000000000,E,33.598055559999999,-104.326944440000005,8.000000000000000,PRIVATE,NM, , , 
212,201142994,2011OKOFS1-2011-10132-A,NONFED,ST-NASF,ST/C&L,USOKOKS,Oklahoma Division of Forestry,OKOFS,Oklahoma Forestry Services, ,1-2011-10132-A, ,10132,OK-SEU-11-10132,Bread Town, , , ,2011,3/20/2011 0:00:00,79,1345,9.000000000000000,Miscellaneous,3/21/2011 0:00:00,80,1345,880.000000000000000,E,34.476333330000003,-96.010833329999997,8.000000000000000,PRIVATE,OK,Atoka,005,Atoka
213,201145610,2011NENFS13722,NONFED,ST-NASF,ST/C&L,USNENES,Nebraska Department of Forestry,NENFS,Nebraska Forest Service, ,13722, , , , , , , ,2011,4/11/2011 0:00:00,101,1724,2.000000000000000,Equipment Use,4/11/2011 0:00:00,101,2030,640.000000000000000,E,41.601478579999998,-101.114387500000007,14.000000000000000,MISSING/NOT SPECIFIED,NE, , , 
214,201146896,2011FLFLS2011160336,NONFED,ST-NASF,ST/C&L,USFLFLS,Florida Forest Service,FLFLS,Florida Forest Service, ,2011160336, ,(MA) U-PICK (336),FL-FLS-2011-16-0336,U-PICK FIRE,FL2709208059520110418,U-PICKFIRE, ,2011,4/18/2011 0:00:00,108,1455,1.000000000000000,Lightning,5/12/2011 0:00:00,132,1923,847.200000000000045,E,27.091699999999999,-80.594999999999999,8.000000000000000,PRIVATE,FL,Martin,085,Martin
215,201153144,2011FLFLS2011110334,NONFED,ST-NASF,ST/C&L,USFLFLS,Florida Forest Service,FLFLS,Florida Forest Service, ,2011110334, ,60/MERRIT MARSH-0334,FL-FLS-2011-11-0334,MERRITT MARSH, , , ,2011,3/27/2011 0:00:00,86,1230,7.000000000000000,Arson,3/29/2011 0:00:00,88,1056,550.000000000000000,E,28.554099999999998,-82.008700000000005,7.000000000000000,STATE,FL,Sumter,119,Sumter
216,201107845,W-630510,FED,DOI-WFMI,BLM,USCOGJD,Northwest District,COGJD,Grand Junction Center, , ,F9Q9,COSGROVE,CO-GRD-000292,Cosgrove,CO3925110844620110807,COSGROVE, ,2011,8/7/2011 0:00:00,219,1529,1.000000000000000,Lightning,9/8/2011 0:00:00,251,0930,1744.000000000000000,F,39.251399999999997,-108.445499999999996,1.000000000000000,BLM,CO,Mesa,077,Mesa
217,201109448,W-632121,FED,DOI-WFMI,BLM,USNVCCD,Carson City District Office,NVCCD,Carson City Field Office, , ,GK7F,RNOX 30,NV-RNOX-1134,LOCKWOOD,NV3951511964820111123,LOCKWOOD, ,2011,11/23/2011 0:00:00,327,1240,9.000000000000000,Miscellaneous,11/24/2011 0:00:00,328,2000,1725.000000000000000,F,39.515300000000003,-119.648300000000006,8.000000000000000,PRIVATE,NV,Washoe,031,Washoe
218,201109473,W-622286,FED,DOI-WFMI,BLM,USNVEKD,Elko District Office,NVEKD,Elko Field Office, , ,F7KB,FRENCHIE,NV-NNS-000723,Frenchie,NV4047011630920110715,FRENCHIE, ,2011,7/15/2011 0:00:00,196,1740,13.000000000000000,Missing/Undefined,7/16/2011 0:00:00,197,1208,1377.799999999999955,F,40.469999999999999,-116.308599999999998,8.000000000000000,PRIVATE,NV,Elko,007,Elko
219,201109485,W-623795,FED,DOI-WFMI,BLM,USNVEKD,Elko District Office,NVEKD,Elko Field Office, , ,F8AK,GRISWALD,NV-EKD-000780,Griswald,NV4064511642320110723,GRISWALD, ,2011,7/23/2011 0:00:00,204,1516,13.000000000000000,Missing/Undefined,7/24/2011 0:00:00,205,1200,2051.000000000000000,F,40.645600000000002,-116.443100000000001,8.000000000000000,PRIVATE,NV,Elko,007,Elko
220,201109499,W-624582,FED,DOI-WFMI,BLM,USNVEKD,Elko District Office,NVEKD,Elko Field Office, , ,F9B6,SUGARLOAF,NV-NNS-000891,Sugarloaf,NV4182211640620110804,SUGARLOAF, ,2011,8/4/2011 0:00:00,216,1026,1.000000000000000,Lightning,8/7/2011 0:00:00,219,0900,2293.500000000000000,F,41.821700000000000,-116.405799999999999,8.000000000000000,PRIVATE,NV,Elko,007,Elko
221,201109501,W-624586,FED,DOI-WFMI,BLM,USNVEKD,Elko District Office,NVEKD,Elko Field Office, , ,F9CK,SUSIE,NV-EKD-000894,Susie,NV4082511600720110804,SUSIE, ,2011,8/4/2011 0:00:00,216,1212,1.000000000000000,Lightning,8/7/2011 0:00:00,219,0700,6641.300000000000182,G,40.825000000000003,-116.007499999999993,1.000000000000000,BLM,NV,Elko,007,Elko
222,201109528,W-625298,FED,DOI-WFMI,BLM,USNVEKD,Elko District Office,NVEKD,Elko Field Office, , ,GAJ6,SALMON,NV-EKD-000989,Salmon,NV4170211501320110814,SALMON, ,2011,8/14/2011 0:00:00,226,1907,1.000000000000000,Lightning,8/18/2011 0:00:00,230,1800,4846.000000000000000,F,41.701900000000002,-115.012799999999999,1.000000000000000,BLM,NV,Elko,007,Elko
223,201109555,W-626499,FED,DOI-WFMI,BLM,USNVEKD,Elko District Office,NVEKD,Elko Field Office, , ,GDR1,TIJUANA JOHN,NV-EKD-001122,Tijuana John, , , ,2011,8/29/2011 0:00:00,241,1542,1.000000000000000,Lightning,9/3/2011 0:00:00,246,0802,746.500000000000000,E,41.778100000000002,-114.540800000000004,1.000000000000000,BLM,NV,Elko,007,Elko
224,201109576,W-629312,FED,DOI-WFMI,BLM,USNVEKD,Elko District Office,NVEKD,Elko Field Office, , ,GG43,WELLS,NV-EKD-001279,Wells,NV4115411482620110924,WELLS, ,2011,9/24/2011 0:00:00,267,1352,13.000000000000000,Missing/Undefined,9/26/2011 0:00:00,269,1400,1467.099999999999909,F,41.154400000000003,-114.825599999999994,1.000000000000000,BLM,NV,Elko,007,Elko
225,201109589,W-629333,FED,DOI-WFMI,BLM,USNVEKD,Elko District Office,NVEKD,Elko Field Office, , ,GHP1,RAIN MINE,NV-EKD-001331,Rain, , , ,2011,9/30/2011 0:00:00,273,1757,1.000000000000000,Lightning,10/1/2011 0:00:00,274,1533,500.000000000000000,E,40.622199999999999,-116.057800000000000,1.000000000000000,BLM,NV,Elko,007,Elko
226,201109590,W-629696,FED,DOI-WFMI,BLM,USNVEKD,Elko District Office,NVEKD,Elko Field Office, , ,GHQ4,IZZENHOOD,NV-EKD-001341,Izzenhood,NV4104711697720110930,IZZENHOOD, ,2011,9/30/2011 0:00:00,273,2023,1.000000000000000,Lightning,10/17/2011 0:00:00,290,2000,42156.699999999997090,G,41.046900000000001,-116.976699999999994,1.000000000000000,BLM,NV,Elko,007,Elko
227,201109591,W-629688,FED,DOI-WFMI,BLM,USNVEKD,Elko District Office,NVEKD,Elko Field Office, , ,GHQ6,INDIAN CREEK,NV-NNS-001336,Indian Creek,NV4094911623520110930,INDIANCREEK, ,2011,9/30/2011 0:00:00,273,1848,1.000000000000000,Lightning,10/12/2011 0:00:00,285,2000,110826.699999999997090,G,40.948599999999999,-116.235299999999995,8.000000000000000,PRIVATE,NV,Elko,007,Elko
228,201109593,W-629690,FED,DOI-WFMI,BLM,USNVEKD,Elko District Office,NVEKD,Elko Field Office, , ,GHQ9,CHUKKAR CANYON,NV-EKD-001337,Chukkar Canyon,NV4078711636620110930,CHUKKARCANYON, ,2011,9/30/2011 0:00:00,273,1856,1.000000000000000,Lightning,10/17/2011 0:00:00,290,2000,48671.900000000001455,G,40.787199999999999,-116.366399999999999,1.000000000000000,BLM,NV,Elko,007,Elko
229,201111372,W-631960,FED,DOI-WFMI,BLM,USWYCAD,Casper Field Office,WYCAD,Casper Field Office, , ,GBK0,SQUAW MTN,WY-PLX-11247,Squaw Mtn,WY4195210526420110821,SQUAWMTN, ,2011,8/21/2011 0:00:00,233,0920,1.000000000000000,Lightning,8/30/2011 0:00:00,242,1800,14484.000000000000000,G,41.951770000000003,-105.262990000000002,8.000000000000000,PRIVATE,WY,Platte,031,Platte
230,201111373,W-630547,FED,DOI-WFMI,BLM,USWYCAD,Casper Field Office,WYCAD,Casper Field Office, , ,GC62,205,WY-CPS-011295,205,WY4309610633720110828,205, ,2011,8/28/2011 0:00:00,240,1104,2.000000000000000,Equipment Use,8/29/2011 0:00:00,241,1200,2573.000000000000000,F,43.096480000000000,-106.337590000000006,8.000000000000000,PRIVATE,WY,Natrona,025,Natrona
231,201111375,W-630644,FED,DOI-WFMI,BLM,USWYCAD,Casper Field Office,WYCAD,Casper Field Office, , ,GCP9,ARAPAHOE, , ,WY4294910640920110825,ARAPAHOE, ,2011,8/25/2011 0:00:00,237,1619,13.000000000000000,Missing/Undefined,8/25/2011 0:00:00,237,2200,2073.000000000000000,F,42.948630000000001,-106.409220000000005,8.000000000000000,PRIVATE,WY,Natrona,025,Natrona
232,201111385,W-627590,FED,DOI-WFMI,BLM,USWYCAD,Casper Field Office,WYCAD,Casper Field Office, , ,GE2Q,SMITH, , ,WY4340410426920110831,SMITH, ,2011,8/31/2011 0:00:00,243,1700,1.000000000000000,Lightning,8/31/2011 0:00:00,243,1700,2200.000000000000000,F,43.403500000000001,-104.268500000000003,8.000000000000000,PRIVATE,WY,Niobrara,027,Niobrara
233,201111393,W-627626,FED,DOI-WFMI,BLM,USWYCAD,Casper Field Office,WYCAD,Casper Field Office, , ,GE5W,CONVERSE 12, , , , , ,2011,8/31/2011 0:00:00,243,1700,1.000000000000000,Lightning,8/31/2011 0:00:00,243,1700,500.000000000000000,E,43.326400000000000,-105.769400000000005,1.000000000000000,BLM,WY,Converse,009,Converse
234,201111442,W-632617,FED,DOI-WFMI,BLM,USWYNCD,New Castle Field Office,WYNCD,Newcastle Field Office, , ,F7P2,WHOOPUP ASSIST,WY-WEX-110436,Whoopup,WY4370110410520110718,WHOOPUP, ,2011,7/18/2011 0:00:00,199,0228,1.000000000000000,Lightning,8/9/2011 0:00:00,221,1600,7462.000000000000000,G,43.714599999999997,-104.089797000000004,1.000000000000000,BLM,WY,Weston,045,Weston
235,201120274,FWS-2011TXSRRF4JH,FED,FWS-FMIS,FWS,USTXSRR,South Texas Refuge Complex,TXSRR,SOUTH TEXAS REFUGES COMPLEX, , ,F4JH,SAN ROMAN, , , , , ,2011,6/2/2011 0:00:00,153,1615,2.000000000000000,Equipment Use,6/3/2011 0:00:00,154,1200,625.000000000000000,E,26.751666669999999,-98.895555560000005,8.000000000000000,PRIVATE,TX, , , 
236,201120276,FWS-2011TXSRRF9BE,FED,FWS-FMIS,FWS,USTXSRR,South Texas Refuge Complex,TXSRR,SOUTH TEXAS REFUGES COMPLEX, , ,F9BE,CASAS RANCH, , , , , ,2011,8/3/2011 0:00:00,215,1615,2.000000000000000,Equipment Use,8/16/2011 0:00:00,228,1900,1000.000000000000000,F,26.680277780000001,-98.348611109999993,8.000000000000000,PRIVATE,TX, , , 
237,201120286,FWS-2011KSFLRF19J,FED,FWS-FMIS,FWS,USKSFLR,Flint Hills National Wildlife Refuge,KSFLR,FLINT HILLS NATIONAL WILDLIFE REFUGE, , ,F19J,EAST KENNEDY CREEK,KS-KSX-464,East Kennedy Creek,KS3828609580420110406,EASTKENNEDYCREEK, ,2011,4/6/2011 0:00:00,96,1630,9.000000000000000,Miscellaneous,4/8/2011 0:00:00,98,1630,1078.000000000000000,F,38.287500000000001,-95.814166670000006,4.000000000000000,FWS,KS, , , 
238,201120290,FWS-2011KSFLRF1L5,FED,FWS-FMIS,FWS,USKSFLR,Flint Hills National Wildlife Refuge,KSFLR,FLINT HILLS NATIONAL WILDLIFE REFUGE, , ,F1L5,BOXCAR, , , , , ,2011,3/15/2011 0:00:00,74,1630,5.000000000000000,Debris Burning,3/18/2011 0:00:00,77,0830,566.000000000000000,E,38.289999999999999,-95.912999999999997,8.000000000000000,PRIVATE,KS, , , 
239,201120292,FWS-2011KSFLRF25P,FED,FWS-FMIS,FWS,USKSFLR,Flint Hills National Wildlife Refuge,KSFLR,FLINT HILLS NATIONAL WILDLIFE REFUGE, , ,F25P,NELSON BOTTOM, , , , , ,2011,4/29/2011 0:00:00,119,1300,7.000000000000000,Arson,4/29/2011 0:00:00,119,1530,534.000000000000000,E,38.347400000000000,-96.035499999999999,8.000000000000000,PRIVATE,KS, , , 
240,201120318,FWS-2011MNDLRF2XT,FED,FWS-FMIS,FWS,USMNDLR,Detroit Lakes Wetland Management District,MNDLR,DETROIT LAKES WETLAND MANAGEMENT DISTRICT, , ,F2XT,WAUBUN WMA,MN-MNS-111-005,Waubun WMA, , , ,2011,4/26/2011 0:00:00,116,1100,7.000000000000000,Arson,4/26/2011 0:00:00,116,1800,1000.000000000000000,F,47.158000000000001,-95.948999999999998,8.000000000000000,PRIVATE,MN, , , 
241,201120332,FWS-2011NMBTRF9UB,FED,FWS-FMIS,FWS,USNMBTR,Bitter Lake National Wildlife Refuge,NMBTR,BITTER LAKE NATIONAL WILDLIFE REFUGE, , ,F9UB,FLYING H,NM-ROD-000039,Flying H,NM3304910510820110808,FLYINGH, ,2011,8/8/2011 0:00:00,220,1230,1.000000000000000,Lightning,8/26/2011 0:00:00,238,1300,6700.000000000000000,G,33.049444440000002,-105.107777780000006,1.000000000000000,BLM,NM, , , 
242,201143136,2011OKOFS1-2011-10400-A,NONFED,ST-NASF,ST/C&L,USOKOKS,Oklahoma Division of Forestry,OKOFS,Oklahoma Forestry Services, ,1-2011-10400-A, ,10400,OK-SEU-11-10400,Blue Gate Fire, , , ,2011,8/4/2011 0:00:00,216,2219,1.000000000000000,Lightning,8/5/2011 0:00:00,217,2219,1621.000000000000000,F,34.265166659999998,-95.282999989999993,8.000000000000000,PRIVATE,OK,Pushmataha,127,Pushmataha
243,201146959,2011FLFLS2011160318,NONFED,ST-NASF,ST/C&L,USFLFLS,Florida Forest Service,FLFLS,Florida Forest Service, ,2011160318, ,(GL) 9-MILE (318),FL-FLS-2011-16-0318,9 MILE,FL2685408155520110412,9MILE, ,2011,4/12/2011 0:00:00,102,1320,9.000000000000000,Miscellaneous,4/12/2011 0:00:00,102,2024,516.000000000000000,E,26.854199999999999,-81.555099999999996,14.000000000000000,MISSING/NOT SPECIFIED,FL,Glades,043,Glades
244,201109594,W-629355,FED,DOI-WFMI,BLM,USNVEKD,Elko District Office,NVEKD,Elko Field Office, , ,GHT0,SIGNBOARD,NV-EKD-001344,Signboard Pass,NV4169811421820111001,SIGNBOARDPASS, ,2011,10/1/2011 0:00:00,274,0713,1.000000000000000,Lightning,10/3/2011 0:00:00,276,1512,2367.500000000000000,F,41.697800000000001,-114.218100000000007,1.000000000000000,BLM,NV,Elko,007,Elko
245,201111498,W-628648,FED,DOI-WFMI,BLM,USWYRAD,Rawlins Field Office,WYRAD,Rawlins Field Office, , ,GCG3,SOUTH PENNOCK,WY-RAD-419,South Pennock, , , ,2011,8/25/2011 0:00:00,237,1130,1.000000000000000,Lightning,9/2/2011 0:00:00,245,2359,521.000000000000000,E,41.445500000000003,-106.641700000000000,1.000000000000000,BLM,WY,Carbon,007,Carbon
246,201111499,W-630883,FED,DOI-WFMI,BLM,USWYRAD,Rawlins Field Office,WYRAD,Rawlins Field Office, , ,GD06,CHRISTNICK,WY-RAD-000472,CHRISTNICK,WY4182510535820110830,CHRISTNICK, ,2011,8/30/2011 0:00:00,242,1800,1.000000000000000,Lightning,9/6/2011 0:00:00,249,1300,2670.000000000000000,F,41.825389999999999,-105.358239999999995,1.000000000000000,BLM,WY,Albany,001,Albany
247,201111509,W-631727,FED,DOI-WFMI,BLM,USWYRAD,Rawlins Field Office,WYRAD,Rawlins Field Office, , ,GGX3,FERRIS MOUNTAIN,WY-RAD-549,Ferris Mountain,WY4225910726320110921,FERRISMOUNTAIN, ,2011,9/21/2011 0:00:00,264,1600,1.000000000000000,Lightning,10/21/2011 0:00:00,294,1200,1400.000000000000000,F,42.253503000000002,-107.240097000000006,1.000000000000000,BLM,WY,Carbon,007,Carbon
248,201120358,FWS-2011NMBTRF4HE,FED,FWS-FMIS,FWS,USNMBTR,Bitter Lake National Wildlife Refuge,NMBTR,BITTER LAKE NATIONAL WILDLIFE REFUGE, , ,F4HE,RIVERSIDE,NM-N5S-000351,RIVERSIDE,NM3342610506820110601,RIVERSIDE, ,2011,6/1/2011 0:00:00,152,1800,1.000000000000000,Lightning,6/5/2011 0:00:00,156,1530,5584.000000000000000,G,33.393055560000001,-105.081111109999995,8.000000000000000,PRIVATE,NM, , , 
249,201120362,FWS-2011FLLWRGHA7,FED,FWS-FMIS,FWS,USFLLWR,Lake Woodruff National Wildlife Refuge,FLLWR,LAKE WOODRUFF NATIONAL WILDLIFE REFUGE, , ,GHA7,EQUINOX,FL-LWR-201156,Equinox,FL2912508148520110928,DEXTERPOINT, ,2011,9/28/2011 0:00:00,271,2000,1.000000000000000,Lightning,10/3/2011 0:00:00,276,1300,2500.000000000000000,F,29.120555560000000,-81.476388889999996,4.000000000000000,FWS,FL, , , 
250,201120388,FWS-2011FLFPRF2ZJ,FED,FWS-FMIS,FWS,USFLFPR,Florida Panther National Wildlife Refuge,FLFPR,FLORIDA PANTHER NATIONAL WILDLIFE REFUGE, , ,F2ZJ,SLOPE FIRE,FL-FLS-2011-17-0175,SLOPE FIRE,FL2616808157120110426,SLOPEFIRE, ,2011,4/26/2011 0:00:00,116,1400,1.000000000000000,Lightning,5/2/2011 0:00:00,122,1700,2500.000000000000000,F,26.167777780000002,-81.571111110000004,4.000000000000000,FWS,FL, , , 
251,201120392,FWS-2011FLFPRF3ZD,FED,FWS-FMIS,FWS,USFLFPR,Florida Panther National Wildlife Refuge,FLFPR,FLORIDA PANTHER NATIONAL WILDLIFE REFUGE, , ,F3ZD,KOBALT,FL-FLS-2011-17-0205,COBALT,FL2611508146420110512,COBALT, ,2011,5/12/2011 0:00:00,132,1000,1.000000000000000,Lightning,5/16/2011 0:00:00,136,1700,3700.000000000000000,F,26.094999999999999,-81.443055560000005,7.000000000000000,STATE,FL, , , 
252,201120404,FWS-2011LABSRGCU5,FED,FWS-FMIS,FWS,USLABSR,Bayou Sauvage National Wildlife Refuge,LABSR,BAYOU SAUVAGE NATIONAL WILDLIFE REFUGE, , ,GCU5,BAD ROMANCE, , ,LA3007808990820110824,BADROMANCE, ,2011,8/24/2011 0:00:00,236,1800,1.000000000000000,Lightning,9/23/2011 0:00:00,266,1200,1500.000000000000000,F,30.078333330000000,-89.907777780000004,8.000000000000000,PRIVATE,LA, , , 
253,201143169,2011OKOFS1-2011-10155-A,NONFED,ST-NASF,ST/C&L,USOKOKS,Oklahoma Division of Forestry,OKOFS,Oklahoma Forestry Services, ,1-2011-10155-A, ,10155,OK-SEU-11-10155,Two Potato,OK3469009518420110323,TWOPOTATO, ,2011,3/24/2011 0:00:00,83,1215,7.000000000000000,Arson,3/28/2011 0:00:00,87,1215,1526.000000000000000,F,34.680833309999997,-95.183833329999999,8.000000000000000,PRIVATE,OK,Pushmataha,127,Pushmataha
254,201143201,2011OKOFS1-2011-10290-A,NONFED,ST-NASF,ST/C&L,USOKOKS,Oklahoma Division of Forestry,OKOFS,Oklahoma Forestry Services, ,1-2011-10290-A, ,10290,OK-OKS-10290A,Alikchi,OK3415009503420110711,ALIKCHI, ,2011,7/11/2011 0:00:00,192,1200,7.000000000000000,Arson,7/18/2011 0:00:00,199,1200,1000.000000000000000,F,34.158999999999999,-95.040666669999993,12.000000000000000,MUNICIPAL/LOCAL,OK,McCurtain,089,McCurtain
255,201144411,2011OKOFS2-2011-20379-A,NONFED,ST-NASF,ST/C&L,USOKOKS,Oklahoma Division of Forestry,OKOFS,Oklahoma Forestry Services, ,2-2011-20379-A, ,20379,OK-ECU-11-20379,Pigeon, , , ,2011,8/1/2011 0:00:00,213,0045,7.000000000000000,Arson,8/2/2011 0:00:00,214,0045,850.000000000000000,E,34.508099999999999,-94.621133360000002,8.000000000000000,PRIVATE,OK,LeFlore,079,Le Flore
256,201145815,2011NENFS13413,NONFED,ST-NASF,ST/C&L,USNENES,Nebraska Department of Forestry,NENFS,Nebraska Forest Service, ,13413, , , , , , , ,2011,2/16/2011 0:00:00,47,1250,11.000000000000000,Powerline,2/16/2011 0:00:00,47,1823,5500.000000000000000,G,41.707969669999997,-101.701210000000003,14.000000000000000,MISSING/NOT SPECIFIED,NE, , , 
257,201145836,2011OKOFS3-2011-30480-A,NONFED,ST-NASF,ST/C&L,USOKOKS,Oklahoma Division of Forestry,OKOFS,Oklahoma Forestry Services, ,3-2011-30480-A, ,30480,OK-NEU-11-30480,Gruber,OK3570509519920110912,GRUBER, ,2011,9/12/2011 0:00:00,255,0130,9.000000000000000,Miscellaneous,9/13/2011 0:00:00,256,0130,3900.000000000000000,F,35.705483309999998,-95.198516670000004,15.000000000000000,UNDEFINED FEDERAL,OK,Muskogee,101,Muskogee
258,201147041,2011FLFLS2011160390,NONFED,ST-NASF,ST/C&L,USFLFLS,Florida Forest Service,FLFLS,Florida Forest Service, ,2011160390, ,(GL) PERSIMMONS (390),FL-FLS-2011-16-0390,PERSIMMONS,FL2687308154420110502,PERSIMMONS, ,2011,5/1/2011 0:00:00,121,1545,1.000000000000000,Lightning,5/2/2011 0:00:00,122,1630,952.399999999999977,E,26.872599999999998,-81.544600000000003,8.000000000000000,PRIVATE,FL,Glades,043,Glades
259,201108062,W-624757,FED,DOI-WFMI,BLM,USIDBOD,Boise District,IDBPD,Birds of Prey NCA, , ,F9BN,BIG FOOT,ID-BOD-000428,BIG FOOT,ID4324411626620110804,BIGFOOT, ,2011,8/4/2011 0:00:00,216,0943,1.000000000000000,Lightning,8/5/2011 0:00:00,217,1800,1716.000000000000000,F,43.242500000000000,-116.264539999999997,1.000000000000000,BLM,ID,Ada,001,Ada
260,201108068,W-625878,FED,DOI-WFMI,BLM,USIDBOD,Boise District,IDBPD,Birds of Prey NCA, , ,GAR6,SOUTHSIM,ID-BOD-000559,SOUTHSIM,ID4317211595820110815,SOUTHSIM, ,2011,8/15/2011 0:00:00,227,1416,9.000000000000000,Miscellaneous,8/17/2011 0:00:00,229,1700,15775.000000000000000,G,43.169899999999998,-115.958810000000000,1.000000000000000,BLM,ID, , , 
261,201109754,W-626633,FED,DOI-WFMI,BLM,USNVELD,Ely District Office,NVELD,Ely Field Office, , ,GCE8,JUMBO,NV-ELD-000188,Jumbo,NV3735511477120110825,JUMBO, ,2011,8/25/2011 0:00:00,237,1408,2.000000000000000,Equipment Use,9/2/2011 0:00:00,245,1600,1715.000000000000000,F,37.355300000000000,-114.771100000000004,1.000000000000000,BLM,NV,Lincoln,017,Lincoln
262,201109760,W-627353,FED,DOI-WFMI,BLM,USNVELD,Ely District Office,NVELD,Ely Field Office, , ,GDH5,VIGO,NV-ELD-0214,VIGO,NV3719411461620110829,VIGO, ,2011,8/29/2011 0:00:00,241,1115,13.000000000000000,Missing/Undefined,9/10/2011 0:00:00,253,1800,12087.000000000000000,G,37.193600000000004,-114.614400000000003,1.000000000000000,BLM,NV, , , 
263,201111649,W-620346,FED,DOI-WFMI,NPS,USAZCOP,Coronado National Memorial,AZCOP,Coronado National Memorial,1102, ,F4WS,MONUMENT,AZ-COP-001102,MONUMENT,AZ3155211041720110612,MONUMENT, ,2011,6/12/2011 0:00:00,163,1316,9.000000000000000,Miscellaneous,7/16/2011 0:00:00,197,1800,30526.000000000000000,G,31.334199999999999,-110.236400000000003,3.000000000000000,NPS,AZ, , , 
264,201111659,W-630008,FED,DOI-WFMI,NPS,USAZGCP,Grand Canyon National Park,AZGCP,Grand Canyon National Park,98, ,F6HL,POINT,AZ-GCP-0098,POINT,AZ3621711223520110704,POINT, ,2011,7/4/2011 0:00:00,185,1805,1.000000000000000,Lightning,11/5/2011 0:00:00,309,1200,4144.000000000000000,F,36.217193999999999,-112.234999999999999,3.000000000000000,NPS,AZ, , , 
265,201111666,W-630062,FED,DOI-WFMI,NPS,USAZGCP,Grand Canyon National Park,AZGCP,Grand Canyon National Park,128, ,F9ER,NEW WATER,AZ-GCP-000000000128,New Water,AZ3599011395020110803,NEW WATER, ,2011,8/3/2011 0:00:00,215,1431,1.000000000000000,Lightning,8/7/2011 0:00:00,219,1800,9795.000000000000000,G,35.989400000000003,-113.963899999999995,8.000000000000000,PRIVATE,AZ, , , 
266,201120445,FWS-2011FLFPRF9XC,FED,FWS-FMIS,FWS,USFLFPR,Florida Panther National Wildlife Refuge,FLFPR,FLORIDA PANTHER NATIONAL WILDLIFE REFUGE, , ,F9XC,PITCH FIRE (DOF 355),FL-FLS-2011-17-0355,PITCH, , , ,2011,8/4/2011 0:00:00,216,1200,1.000000000000000,Lightning,8/9/2011 0:00:00,221,1700,2200.000000000000000,F,26.123055560000001,-81.457222220000006,7.000000000000000,STATE,FL, , , 
267,201120463,FWS-2011MDBWRF2JH,FED,FWS-FMIS,FWS,USMDBWR,Chesapeake Marshlands National Wildlife Refuge Complex,MDBWR,CHESAPEAKE MARSHLANDS NATIONAL WILDLIFE REFUGE COMPLEX, , ,F2JH,ISLAND POND, , , , , ,2011,4/11/2011 0:00:00,101,1200,9.000000000000000,Miscellaneous,4/12/2011 0:00:00,102,1200,1700.000000000000000,F,38.380505999999997,-75.931977000000003,4.000000000000000,FWS,MD, , , 
